ID	Population	Pop	Sample Size	Latitude	Longitude	General Location	K1	K2	K3	K4	K5	K6	Data
1	PFBNC143	WRC061-001	20	35.12013	-82.75003	Murr Creek	0	3.00E-04	0	0.99715	0	0.00245	0-0-0-99.7-0-0.2
3	OHCM1	OHCM1-1001	152	38.6031	-79.8815	Shavers Fork, Segs 1-10	0.043848684	0.000401316	0	8.55E-05	0	0.955657895	4.4-0-0-0-0-95.6
4	OHCM2	OHCM2-01	20	38.6023	-79.9109	Lambert Run	0.1632	0	0	0	0	0.83675	16.3-0-0-0-0-83.7
5	OHCM3	OHCM3-01	30	38.55	-79.895	First Fork	0.028466667	0.003266667	0	0	0	0.968233333	2.8-0.3-0-0-0-96.8
6	OHCM4	OHCM4-01	27	38.5415	-79.9487	Buck Run	0.000111111	0.008	0	7.41E-05	0	0.991814815	0-0.8-0-0-0-99.2
7	OHCM5	OHCM5-01	26	38.5619	-79.9276	Black Run	0.000115385	3.85E-05	0	7.69E-05	0	0.999730769	0-0-0-0-0-100
8	OHCM6	OHCM6-01	33	38.4857	-79.9663	Rocky Run 1	0	0	0	0	0	1	0-0-0-0-0-100
9	OHCM7	OHCM7-01	31	38.4868	-79.9753	Rocky Run 2	0.002258065	0.002483871	0	9.68E-05	0	0.995129032	0.2-0.2-0-0-0-99.5
10	OHCM8	OHCM8-101	52	38.4974	-79.9298	2nd Fork, Segs. 7,8,10	0	9.62E-05	0	0	0	0.999903846	0-0-0-0-0-100
11	OHTM1	OHTM1-01	50	38.7345	-79.9089	Shavers Run	1.00E-04	0.85828	0.00018	0.04656	0	0.09492	0-85.8-0-4.7-0-9.5
12	OHYM1	OHYM1-01	49	39.7148	-79.2305	Puzzley Run	0.125387755	0.11177551	0	0.001040816	0	0.761734694	12.5-11.2-0-0.1-0-76.2
13	OHYM2	OHYM2-01	49	39.4016	-79.3043	Boiling Springs	0.101326531	0.001	0	0.000632653	0	0.897040816	10.1-0.1-0-0.1-0-89.7
14	OHYM3	OHYM3-01	49	39.6588	-79.2739	Little Bear Creek	0.052612245	0.307693878	0	0.034918367	0	0.604612245	5.3-30.8-0-3.5-0-60.5
15	OHYM4	OHYM4-001	30	39.6329	-79.2252	Casselman River	0.002666667	0.282366667	0	0.010133333	0	0.704833333	0.3-28.2-0-1-0-70.5
16	GA06	GA06-001	30	34.796427	-83.78574	Upper Chattahoochee River	0	0.999866667	0	0.000133333	0	0	0-100-0-0-0-0
17	GA07	GA07-001	30	34.764654	-83.804072	Low Gap Creek	0	1	0	0	0	0	0-100-0-0-0-0
18	GA21	GA21-001	30	34.79557	-83.653437	Left Fork Soque River	0	1	0	0	0	0	0-100-0-0-0-0
19	GUNR1	GUNR1-01	50	39.5981	-76.6531	Panther Branch	0.26228	0.00242	0	0.00418	0	0.73108	26.2-0.2-0-0.4-0-73.1
20	GUNR2	GUNR2-01	50	39.658	-76.8139	Indian Run	0.66786	0.06784	0	0	0	0.26428	66.8-6.8-0-0-0-26.4
23	SUSR4	SUSR4-001	100	39.6481	-76.4454	Rock Hollow Run	0.01628	0.00077	0.00013	0.00119	0	0.9816	1.6-0.1-0-0.1-0-98.2
24	SUSR5	SUSR5-001	50	39.6295	-76.4209	Kellogg Branch	0.0066	0	0	0	0	0.9934	0.7-0-0-0-0-99.3
25	SUSR6	SUSR6-001	50	39.6438	-76.479	Spooners Creek	0.02506	0	0	0.00034	0	0.97458	2.5-0-0-0-0-97.5
26	CATO1	CATO1-01	47	39.6349	-77.4789	Big Hunting Creek	0.216	0	0	0	0	0.784	21.6-0-0-0-0-78.4
27	CATO2	CATO2-01	49	39.6632	-77.4804	Owens Creek	2.04E-05	0	0	0	0	0.999979592	0-0-0-0-0-100
28	CATO3	CATO3-01	32	39.6363	-77.45	Still Creek	0.03846875	0.0008125	0	0.0010625	0	0.9595625	3.8-0.1-0-0.1-0-96
29	CATO4	CATO4-01	38	39.5432	-77.4647	Right Fork Fishing Creek	0.000236842	0.000184211	0	0.001157895	0	0.998421053	0-0-0-0.1-0-99.8
30	CATO5	CATO5-01	48	39.5327	-77.4752	Left Fork Fishing Creek	0.031875	0.0028125	0	0.012416667	0	0.952770833	3.2-0.3-0-1.2-0-95.3
31	POMR1	POMR1-01	47	39.4734	-77.4152	Tuscarora Creek	0.051680851	0.000340426	0	0.001765957	0	0.946191489	5.2-0-0-0.2-0-94.6
32	BearCreek	VA05-001	20	36.737334	-80.58159	Bear Creek	0	1	0	0	0	0	0-100-0-0-0-0
33	BigReedIslandCr	VA07-001	20	36.674994	-80.521569	Big Reed Island Creek	0	0.92005	0	0.0792	0	7.00E-04	0-92-0-7.9-0-0.1
35	EFDryRun	VA09-001	20	36.771983	-81.164966	EF Dry Run	8.00E-04	0.85665	0	0.13715	0	0.00525	0.1-85.7-0-13.7-0-0.5
37	NFStonyCreek	VA11-002	19	37.43226	-80.553248	NF Stony Creek	0	0.956789474	0	0.043210526	0	0	0-95.7-0-4.3-0-0
38	OHCK1	OHCK1-01	25	38.23711	-80.34118	Byrd Branch	0.25084	0.69216	0.00024	0.052	0	0.00488	25.1-69.2-0-5.2-0-0.5
39	OHCK2	OHCK2-01	49	38.24175	-80.37169	Dogway Fork	0.412795918	0.463346939	0.001387755	0.067489796	0	0.054918367	41.3-46.3-0.1-6.7-0-5.5
40	OHGK1	OHGK1-01	50	38.58315	-79.66737	Walderman Run	0.00042	0.64102	0.131	0.12684	0	0.10068	0-64.1-13.1-12.7-0-10.1
41	OHGK2	OHGK2-01	49	38.39899	-79.74983	Sutton Run	0	0.982836735	0.016163265	0.000959184	0	4.08E-05	0-98.3-1.6-0.1-0-0
42	OHGK3	OHGK3-001	27	38.65128	-79.65491	EF Greenbrier Headwater	0.036518519	0.680518519	0.001481481	0.011074074	0	0.270259259	3.7-68.1-0.1-1.1-0-27
43	OHGK4	OHGK4-001	30	38.62221	-79.68543	Mullenox Run	0.003233333	0.632366667	0.015033333	0.135866667	0	0.2134	0.3-63.2-1.5-13.6-0-21.3
44	OHGK5	OHGK5-001	23	38.61545	-79.67927	Abes Run	4.35E-05	0.770478261	0.08773913	0.010391304	0	0.131217391	0-77-8.8-1-0-13.1
45	OHGK6	OHGK6-001	19	38.57618	-79.70156	Long Run	5.26E-05	0.808263158	0.000157895	0.126526316	0	0.065	0-80.8-0-12.7-0-6.5
46	OHGK7	OHGK7-001	22	38.51356	-79.7221	Little River	0.005727273	0.989409091	0	0.002727273	0	0.002181818	0.6-98.9-0-0.3-0-0.2
47	OHGK8	OHGK8-001	29	37.96923	-80.29571	Laurel Run	0.897413793	0.101103448	0.000103448	0.000758621	0	0.000586207	89.7-10.1-0-0.1-0-0.1
49	OHGN1	OHGN1-001	30	38.2026	-80.37271	NF Cherry River	0.0031	0.8594	0.000133333	0.074233333	0	0.063266667	0.3-85.9-0-7.4-0-6.3
51	OHNK1	OHNK1-001	30	37.91433	-81.02081	Buffalo Creek	0.081266667	0.745366667	0	0.000466667	0	0.172933333	8.1-74.5-0-0-0-17.3
52	OHNK10	WRC134-001	20	36.4267603	-81.453945	Ezra Fork	0.02015	0.873	0	0.105	0	0.00175	2-87.3-0-10.5-0-0.2
53	OHNK11	WRC137-001	20	36.4493635	-81.0835415	Glade Creek	0	0.9517	0	0.04825	0	0	0-95.2-0-4.8-0-0
54	OHNK12	WRC144-001	20	36.5569233	-81.6234242	Little Horse Creek	0	0.9991	0	9.00E-04	0	0	0-99.9-0-0.1-0-0
55	OHNK13	WRC146-001	20	36.3196431	-81.6919865	Meat Camp Creek	0	0.84015	0	0.1598	0	0	0-84-0-16-0-0
57	OHNK15	WRC151-001	20	36.3279872	-81.6367979	Pine Orchard Creek	0	0.98875	0	0.01125	0	0	0-98.9-0-1.1-0-0
58	OHNK16	WRC153-001	20	36.4215314	-81.2530259	Reeves Branch	0.1023	0.8748	0	0.004	0	0.0188	10.2-87.5-0-0.4-0-1.9
60	OHNK18	WRC165-001	20	36.255907	-81.7003412	Trivett Branch	0	1	0	0	0	0	0-100-0-0-0-0
61	OHNK19	WRC167-001	20	36.583253	-81.630069	UT Big Horse Creek (above Ripshin Branch at Va. state line)	0	0.7986	0	0.2014	0	0	0-79.9-0-20.1-0-0
63	OHNK20	WRC168-001	20	36.5258384	-81.6704962	UT Big Laurel Creek ( Above Beaverponds )	0.00415	0.6299	0	0.3025	0	0.06325	0.4-63-0-30.3-0-6.3
64	OHNK21	WRC172-001	20	36.4275894	-81.285759	UT Cranberry Creek	0.00015	0.9745	0	0.02535	0	0	0-97.5-0-2.5-0-0
65	OHNK22	WRC177-001	20	36.1687212	-81.6486848	UT Middle Fork New River (@Tweetsie RR)	0.0241	0.94875	0.00585	0.0213	0	0	2.4-94.9-0.6-2.1-0-0
66	OHNK23	WRC180-001	20	36.3346989	-81.5191582	UT Old Fields Creek	0	0.74825	0.0012	0.25055	0	0	0-74.8-0.1-25.1-0-0
67	OHNK24	WRC181-001	20	36.318367	-81.6350545	UT Pine Orchard Creek	0	1	0	0	0	0	0-100-0-0-0-0
68	OHNK25	WRC184-001	20	36.3238544	-81.4823595	UT South Fork New River	0	0.8919	0	0.1081	0	0	0-89.2-0-10.8-0-0
69	OHNK26	WRC186-001	20	36.2661567	-81.4775217	West Fork Pine Swamp Creek	0	0.87725	5.00E-05	0.1225	0	0.00015	0-87.7-0-12.3-0-0
70	OHNK27	WRC188-001	20	36.2837895	-81.4703543	Wolfpen Creek	0	0.9944	0	0.0056	0	0	0-99.4-0-0.6-0-0
72	OHNK29	WRC127-001	20	36.1556403	-81.6500868	Brown Branch	0.00125	0.6619	0	0.3365	0	3.00E-04	0.1-66.2-0-33.7-0-0
75	OHNK31	WRC129-001	20	36.4408513	-81.4916861	Claybank Creek	1.00E-04	0.7656	0	0.23405	0	1.00E-04	0-76.6-0-23.4-0-0
76	OHNK32	WRC131-001	20	36.242154	-81.686784	Doe Fork	0	0.95325	0	0.04675	0	0	0-95.3-0-4.7-0-0
77	OHNK33	WRC133-001	20	36.5054486	-81.6451105	East Fork Roaring Fork	0.225	0.12305	0	0.5696	0	0.08215	22.5-12.3-0-57-0-8.2
78	OHNK34	WRC135-001	20	36.4266562	-81.4539442	Ezra Fork	0.00035	0.8528	0	0.14205	0	0.0047	0-85.3-0-14.2-0-0.5
79	OHNK35	WRC136-001	20	36.2409489	-81.538227	Gap Creek	0	0.89365	0.00045	0.10575	0	0.00015	0-89.4-0-10.6-0-0
81	OHNK37	WRC139-001	19	36.371606	-81.712475	Hoskins Fork	0.007052632	0.949736842	0	0.041947368	0	0.001105263	0.7-95-0-4.2-0-0.1
82	OHNK38	WRC140-001	20	36.5535323	-81.513874	Jerd Branch	0.9997	0	0	0	0	0.00025	100-0-0-0-0-0
83	OHNK39	WRC141-001	20	36.2687846	-81.7183243	Jones Branch	0	0.982	0	0.018	0	0	0-98.2-0-1.8-0-0
84	OHNK4	WRC122-001	20	36.1726689	-81.6925992	(C) Winkler Creek (above old Impoundment)	0	0.9913	0	0.0087	0	0	0-99.1-0-0.9-0-0
85	OHNK40	WRC142-001	20	36.5283912	-81.6843392	Kilby Creek	1.00E-04	0.1285	5.00E-05	0.87055	0	0.00075	0-12.9-0-87.1-0-0.1
87	OHNK42	WRC145-001	20	36.424392	-81.197458	Meadow Fork	5.00E-05	0.6165	0.00105	0.38245	0	0	0-61.7-0.1-38.2-0-0
89	OHNK44	WRC148-001	20	36.2362881	-81.6642773	Norris Branch	2.00E-04	0.52685	0	0.4639	0	0.00905	0-52.7-0-46.4-0-0.9
90	OHNK45	WRC149-001	19	36.2825932	-81.6830482	Norris Fork	0.076368421	0.833	0	0.090631579	0	0	7.6-83.3-0-9.1-0-0
93	OHNK48	WRC155-001	20	36.3041046	-81.650166	Rittle Fork	0	0.9985	0	0.0015	0	0	0-99.9-0-0.2-0-0
94	OHNK49	WRC157-001	20	36.5053588	-81.5980255	Roaring Branch	0	0.2874	0	0.7125	0	1.00E-04	0-28.7-0-71.3-0-0
95	OHNK5	WRC123-001	20	36.1752544	-81.6899697	(C) Winkler Creek (between old & new impoundments)	0.00905	0.94975	5.00E-05	0.03935	0	0.0018	0.9-95-0-3.9-0-0.2
96	OHNK50	WRC158-001	20	36.5147638	-81.653585	Roaring Fork	0.6179	0.00065	0	0.0019	0	0.37935	61.8-0.1-0-0.2-0-37.9
98	OHNK52	WRC160-001	20	36.455572	-81.697383	Roundabout Creek	0.38905	0.38355	0	0.0894	0	0.1381	38.9-38.4-0-8.9-0-13.8
99	OHNK53	WRC162-001	20	36.3749868	-81.5996959	Skin Camp Branch	0	0.99955	0	0.00045	0	0	0-100-0-0-0-0
100	OHNK54	WRC163-001	20	36.354175	-81.676697	Snyder Branch	0.14735	0.796	0	0.0562	0	0.00035	14.7-79.6-0-5.6-0-0
102	OHNK56	WRC166-001	19	36.146241	-81.647147	UT Aho Branch	0.028421053	0.720947368	0.018473684	0.232157895	0	0	2.8-72.1-1.8-23.2-0-0
103	OHNK57	WRC169-001	20	36.547918	-81.6603131	UT Big Laurel Creek ( Below Flatwood )	0.0854	0.1764	0	0.61735	0	0.1207	8.5-17.6-0-61.7-0-12.1
104	OHNK58	WRC170-001	20	36.5547494	-81.6693876	UT Big Laurel Creek ( Denny Hollow )	0.1945	0.16235	0.00015	0.59745	0	0.04565	19.5-16.2-0-59.7-0-4.6
105	OHNK59	WRC171-001	20	36.395783	-81.531642	UT Buffalo Creek (@ Buck Mtn.)	5.00E-05	0.77215	0	0.2263	0	0.0014	0-77.2-0-22.6-0-0.1
106	OHNK6	WRC124-001	20	36.3573423	-81.6159101	Bald Fork	0	1	0	0	0	0	0-100-0-0-0-0
110	OHNK63	WRC176-001	20	36.139162	-81.6672204	UT Middle Fork New River (@substation)	0	0.9016	5.00E-04	0.0979	0	0	0-90.2-0.1-9.8-0-0
111	OHNK64	WRC178-001	20	36.4802743	-81.4765576	UT North Fork New River	0.16605	0.17305	0.00065	0.4173	0	0.24285	16.6-17.3-0.1-41.7-0-24.3
112	OHNK65	WRC179-001	20	36.42683	-81.613394	UT North Fork New River (@ Creston)	0.1866	0.75845	0	0.0549	0	0.00015	18.7-75.8-0-5.5-0-0
113	OHNK66	WRC183-001	20	36.332893	-81.4599757	UT South Fork New River	0.0803	0.8952	0	0.0245	0	1.00E-04	8-89.5-0-2.5-0-0
115	OHNK68	WRC187-001	19	36.4039791	-81.2784303	Wolf Branch	0.044894737	0.954473684	0	0.000631579	0	5.26E-05	4.5-95.4-0-0.1-0-0
116	OHNK69	D701-001	22	36.3169623	-81.7013383	UT Meat Camp Creek	0	0.999545455	0	0.000454545	0	0	0-100-0-0-0-0
117	OHNK7	WRC126-001	20	36.5626706	-81.6665957	Big Laurel Creek	0.0055	0.23505	0	0.61595	0	0.1435	0.6-23.5-0-61.6-0-14.4
119	OHNK71	D703-001	24	36.1541123	-81.6276005	Aho Branch	0	1	0	0	0	0	0-100-0-0-0-0
120	OHNK8	WRC130-001	20	36.2638257	-81.5339435	Cranberry Creek	0	0.92215	0	0.0778	0	0	0-92.2-0-7.8-0-0
121	OHNK9	WRC132-001	20	36.2838079	-81.4351735	East Fork Pine Swamp Creek	0	0.9958	0	0.0042	0	0	0-99.6-0-0.4-0-0
122	PFBNC124	WRC336-001	20	36.3592958	-81.719256	UT Hoskins Fork	0.1003	0.69445	5.00E-05	0.2028	0	0.00235	10-69.4-0-20.3-0-0.2
123	PFBNC76	WRC332-001	20	36.3083612	-81.6702018	Little Creek	0.0081	0.88595	0	0.10535	0	6.00E-04	0.8-88.6-0-10.5-0-0.1
124	SnakeCreek	VA12-001	20	36.678723	-80.657286	Snake Creek	0	0.99985	0	0	0	0.00015	0-100-0-0-0-0
125	StandrockBranch	VA13-001	20	37.196585	-80.893499	Standrock Branch	0.0077	0.98995	0	0.0021	0	0.00025	0.8-99-0-0.2-0-0
126	ToryCreek	VA14-001	18	36.744527	-80.493856	Tory Creek	0	0.992944444	0	0.007055556	0	0	0-99.3-0-0.7-0-0
128	GA13	GA13-001	30	34.769548	-84.033267	Bryant Creek	0	0.000166667	0	0.999833333	0	0	0-0-0-100-0-0
129	GA14	GA14-001	40	34.767345	-83.993942	Logan Creek	0	0	0	1	0	0	0-0-0-100-0-0
130	GCS1	LR_2013_121	29	35.591956	-83.516187	Grouse Creek Site 1	0	0	0	1	0	0	0-0-0-100-0-0
131	GPS1	FC_2014_001	40	35.594153	-83.561233	Goshen Prong Site 1	0	0	0	1	0	0	0-0-0-100-0-0
132	GPS4	FC_2014_096	50	35.5834	-83.544	Goshen Prong Site 4	0	0	0	1	0	0	0-0-0-100-0-0
133	GRSML1	GRSML1-001	48	35.591	-83.5744	Fish Camp Run	0	0	0	1	0	0	0-0-0-100-0-0
136	GRSML22	GS35-001	30	35.62383817	-83.64181971	Marks Creek	0	0	0	1	0	0	0-0-0-100-0-0
137	GRSML3	GRSML3-001	35	35.5879	-83.6316	Indian Flats	0.084114286	0.034885714	2.86E-05	0.825	0	0.055828571	8.4-3.5-0-82.5-0-5.6
138	GRSML4	GRSML4-001	49	35.6509	-83.6281	Mannis Branch	0	0	1	0	0	0	0-0-100-0-0-0
139	GRSML5	GRSML5-001	24	35.5899	-83.5662	Silers's Creek	0	0	0	1	0	0	0-0-0-100-0-0
140	GRSML6	GRSML6-1001	76	35.5899	-83.5662	Silers's Creek (4,9,10)	0	0	0	1	0	0	0-0-0-100-0-0
142	GRSMP1	GRSMP1-001	47	35.6521	-83.1689	Lost Bottoms	0	0	1	0	0	0	0-0-100-0-0-0
143	GRSMP10	GRSMP10-001	21	35.62527	-83.47016	Road Prong	0	9.52E-05	0.893857143	0.106	0	0	0-0-89.4-10.6-0-0
144	GRSMP11	GRSMP11-001	34	35.75969	-83.19495	Tom?s Creek	0	0	1	0	0	0	0-0-100-0-0-0
145	GRSMP12	GRSMP12-001	32	35.7389	-83.2783	Indian Camp Creek	0	0	1	0	0	0	0-0-100-0-0-0
146	GRSMP13	GRSMP13-001	25	35.67001	-83.09951	Little Cataloochee Creek	0	0	1	0	0	0	0-0-100-0-0-0
147	GRSMP14	GRSMP14-001	28	35.6767	-83.08874	Correll Branch	0	0	1	0	0	0	0-0-100-0-0-0
148	GRSMP16	GRSMP16-001	40	35.7608	-83.19703	Toms Creek	0	0	1	0	0	0	0-0-100-0-0-0
149	GRSMP17	GRSMP17-009	16	35.76479	-83.25353	Greenbrier Creek	0	0	1	0	0	0	0-0-100-0-0-0
150	GRSMP18	GRSMP18-009	16	35.73785	-83.27838	Indian Camp Creek	0	0	1	0	0	0	0-0-100-0-0-0
152	GRSMP2	GRSMP2-001	32	35.7671	-83.2023	Cosby Creek	0	0	1	0	0	0	0-0-100-0-0-0
153	GRSMP20	GS34-001	30	35.62745	-83.40842	Kephart Branch	0	0.000133333	0.9296	0.070233333	0	0	0-0-93-7-0-0
157	GRSMP24	GS37-001	30	35.62274826	-83.42144591	Walker Camp Prong	0.452466667	0.059233333	0.237	0.192433333	0	0.058833333	45.2-5.9-23.7-19.2-0-5.9
158	GRSMP25	GS38-001	28	35.7456837	-83.215988	Rock Creek	0	0	1	0	0	0	0-0-100-0-0-0
159	GRSMP26	GS39-001	30	35.69511594	-83.32153141	Buck Fork	0	0.896433333	0	0.070266667	0	0.0333	0-89.6-0-7-0-3.3
160	GRSMP27	GS43-001	30	35.69182448	-83.31598851	Chapman Prong	0	0.966466667	0	0.033533333	0	0	0-96.6-0-3.4-0-0
162	GRSMP29	GS55-002	30	35.64431163	-83.0726446	Winding Stair	0	0	1	0	0	0	0-0-100-0-0-0
163	GRSMP3	GRSMP3-033	48	35.7671	-83.2023	Cosby Creek	0	0	0.9999375	6.25E-05	0	0	0-0-100-0-0-0
164	GRSMP30	GS56-002	30	35.59985518	-83.1308236	Hurricane Creek	0	0	1	0	0	0	0-0-100-0-0-0
165	GRSMP31	GS57-002	30	35.6021498	-83.16291579	Bear Branch	0	0	1	0	0	0	0-0-100-0-0-0
166	GRSMP32	GS58-002	30	35.67181836	-83.13536468	Pretty Hollow	0	0	1	0	0	0	0-0-100-0-0-0
167	GRSMP33	GS59-002	30	35.60188	-83.16237872	Horse Creek	0	0	1	0	0	0	0-0-100-0-0-0
168	GRSMP34	GS60-002	30	35.61488345	-83.14599307	Messer Branch	0	0	0.999966667	3.33E-05	0	0	0-0-100-0-0-0
169	GRSMP35	GS61-002	29	35.61336491	-83.0939906	Sag Branch	0	0	1	0	0	0	0-0-100-0-0-0
170	GRSMP36	GS62-002	29	35.57193744	-83.12570343	Caldwell Fork	0	0	0.975655172	0.024344828	0	0	0-0-97.6-2.4-0-0
171	GRSMP37	GS63-002	30	35.67180283	-83.13877789	Onion Bed	0	0.030066667	0.969566667	4.00E-04	0	0	0-3-97-0-0-0
172	GRSMP38	GS64-002	30	35.57635336	-83.12628358	Straight Creek	0	0.000433333	0.993333333	0.0062	0	0	0-0-99.3-0.6-0-0
173	GRSMP39	GS65-002	30	35.59419869	-83.0987225	McKee Branch	0	3.33E-05	0.992433333	0.0075	0	0	0-0-99.2-0.8-0-0
174	GRSMP4	GRSMP4-001	28	35.7643	-83.2526	Greenbrier Creek	0	0	1	0	0	0	0-0-100-0-0-0
175	GRSMP5	GRSMP5-035	27	35.7643	-83.2526	Greenbrier Creek	0	0	1	0	0	0	0-0-100-0-0-0
176	GRSMP6	GRSMP6-001	33	35.7389	-83.2783	Indian Camp Creek	0	0.003727273	0.995757576	0.000515152	0	0	0-0.4-99.6-0.1-0-0
177	GRSMP8	GRSMP8-001	25	35.7671	-83.2023	Cosby Creek	0	0	1	0	0	0	0-0-100-0-0-0
178	GRSMP9	GRSMP9-001	34	35.7643	-83.2526	Greenbrier Creek	0	0	1	0	0	0	0-0-100-0-0-0
179	GRSMT1	GRSMT1-001	49	35.5563	-83.1677	Bunches Creek	0	0.890795918	0.059755102	0.049489796	0	0	0-89.1-6-4.9-0-0
180	GRSMT2	GRSMT2-001	50	35.5667	-83.18	Flatt Creek	0	0.87496	0.09442	0.03062	0	0	0-87.5-9.4-3.1-0-0
181	GRSMT22	GS36-001	28	35.61986728	-83.23039471	Hyatt Creek	0	0.99975	0	0.000178571	0	3.57E-05	0-100-0-0-0-0
182	GRSMT23	GS40-001	29	35.58476105	-83.42515628	RF Deep Creek	0	1	0	0	0	0	0-100-0-0-0-0
183	GRSMT24	GS41-001	30	35.58503691	-83.42667635	Sahlee Creek	0	1	0	0	0	0	0-100-0-0-0-0
184	GRSMT25	GS42-001	30	35.55528252	-83.47670642	Noland Creek	0	1	0	0	0	0	0-100-0-0-0-0
185	GRSMT26	GS44-001	31	35.49706343	-83.65659546	Cold Springs Branch	0	1	0	0	0	0	0-100-0-0-0-0
186	GRSMT27	GS45-001	30	35.51194438	-83.69720183	Haw Gap Branch	0	1	0	0	0	0	0-100-0-0-0-0
187	GRSMT28	GS46-001	29	35.54112558	-83.67636608	Desolation Branch	0	1	0	0	0	0	0-100-0-0-0-0
188	GRSMT29	GS47-001	30	35.54053482	-83.6708987	Defeat Branch	0	1	0	0	0	0	0-100-0-0-0-0
189	GRSMT3	GRSMT3-001	40	35.5341	-83.5446	Huggin's Creek	0.12575	0.788275	0	0.08205	0	0.003875	12.6-78.8-0-8.2-0-0.4
190	GRSMT30	GS49-002	30	35.62001761	-83.33050789	Louie Camp Branch	0	1	0	0	0	0	0-100-0-0-0-0
191	GRSMT31	GS50-002	30	35.61226789	-83.26422737	Enloe Creek	3.33E-05	0.929933333	0	0.001633333	0	0.068333333	0-93-0-0.2-0-6.8
192	GRSMT32	GS51-002	30	35.62431103	-83.32617226	Bearwallow Branch	7.00E-04	0.9364	0.033333333	0.000366667	0	0.0292	0.1-93.6-3.3-0-0-2.9
193	GRSMT33	GS52-002	30	35.63332387	-83.32996679	Chasm Prong	0	0.9999	0	1.00E-04	0	0	0-100-0-0-0-0
194	GRSMT34	GS53-001	30	35.64340742	-83.25582982	R. Fork Raven Fork	0.000766667	0.975	0	0.004066667	0	0.020133333	0.1-97.5-0-0.4-0-2
195	GRSMT35	GS54-002	30	35.64491771	-83.32894523	Gulf Prong	0	0.9781	0	0.0219	0	0	0-97.8-0-2.2-0-0
197	GRSMT5	GRSMT5-001	47	35.4858	-83.5926	Bear Creek	0.014212766	0.920382979	0	0.05912766	0	0.006276596	1.4-92-0-5.9-0-0.6
198	GRSMT6	GRSMT6-001	25	35.58628	-83.36516	Kanati Fork	0	1	0	0	0	0	0-100-0-0-0-0
199	GRSMT7	GRSMT7-001	22	35.59933	-83.39906	Aden Branch	0	1	0	0	0	0	0-100-0-0-0-0
200	L2S1	FC_2014_238	50	35.57905	-83.578	Lean-to Site 1	0	0	0	1	0	0	0-0-0-100-0-0
201	LRS1	LR_2013_001	30	35.592602	-83.511766	Little River Site 1	0	0	0	1	0	0	0-0-0-100-0-0
202	LTGA11	GA11-001	30	34.946254	-83.453083	Keener Creek	0	0.996733333	0	0.003266667	0	0	0-99.7-0-0.3-0-0
203	LTNC10	WRC113-001	20	35.0511015	-83.308477	UT Tessentee Creek	0	1	0	0	0	0	0-100-0-0-0-0
204	LTNC100	WRC091-001	20	35.2377037	-84.0580182	(A) Tipton Creek (incl. trib.)	0.001	0.99875	0	2.00E-04	0	0	0.1-99.9-0-0-0-0
205	LTNC101	WRC092-001	20	35.0634056	-83.2739161	Bennies Branch	0.0814	0.8397	0	0.0774	0	0.0015	8.1-84-0-7.7-0-0.2
206	LTNC102	WRC093-001	20	35.089675	-83.189961	Big Creek	0.22535	0.5586	0	0.2134	0	0.00265	22.5-55.9-0-21.3-0-0.3
207	LTNC103	WRC095-001	20	35.1016582	-83.2430469	Brush Creek	0.1628	0.79335	0	0.04345	0	0.00045	16.3-79.3-0-4.3-0-0
208	LTNC104	WRC096-001	20	35.2257112	-83.2384502	Bryson Branch	0	0.99115	0	0.00885	0	0	0-99.1-0-0.9-0-0
209	LTNC105	WRC098-001	20	35.1037626	-83.2902498	Crow Creek	0.938	0.0517	0	0.01015	0	5.00E-05	93.8-5.2-0-1-0-0
211	LTNC107	WRC380A-001	33	35.2204377	-83.0327662	Flat Creek (above falls)	0.057393939	0.182090909	0	0.680151515	0	0.080393939	5.7-18.2-0-68-0-8
212	LTNC108	WRC381-001	19	35.2568349	-82.9362342	Pinhook Creek (below falls)	0	0.336421053	0	0.663578947	0	0	0-33.6-0-66.4-0-0
213	LTNC109	D901-001	35	35.289958	-83.293475	Bettys Branch	0	1	0	0	0	0	0-100-0-0-0-0
214	LTNC11	WRC293-001	20	35.1970383	-82.9847656	Bracken Creek	0.6208	0.00185	0	0.25755	0	0.11975	62.1-0.2-0-25.8-0-12
215	LTNC110	D902-001	20	35.282125	-83.265064	Tatham Creek	0	1	0	0	0	0	0-100-0-0-0-0
216	LTNC111	D903-001	30	35.248756	-83.267727	Shell Branch	0	0.999766667	0	0.000233333	0	0	0-100-0-0-0-0
217	LTNC112	D906-001	39	35.302122	-83.372431	Huckleberry Creek	0	0.969358974	0	0.030641026	0	0	0-96.9-0-3.1-0-0
218	LTNC113	D907-001	36	35.302543	-83.341682	Beasley Creek	0	0.999805556	0	0.000194444	0	0	0-100-0-0-0-0
219	LTNC12	WRC295-001	20	35.2826209	-82.9853557	Charley Creek	0.0034	0.93635	0	0.04845	0	0.01175	0.3-93.6-0-4.8-0-1.2
220	LTNC13	WRC296-001	20	35.2201	-82.95806	Cold Creek	0.44055	0.43735	0	0.0403	0	0.08155	44.1-43.7-0-4-0-8.2
221	LTNC14	WRC302-001	20	35.2028632	-83.1893383	Gem Creek	5.00E-05	0.9846	0	0.01485	0	0.00045	0-98.5-0-1.5-0-0
222	LTNC15	WRC306-001	20	35.2788805	-83.0250111	Jeff Creek	0	0.7504	0	0.2496	0	0	0-75-0-25-0-0
223	LTNC16	WRC308-001	20	35.2016225	-83.2125065	Little Pine Creek	0.4985	0.3634	0	0.13285	0	0.00525	49.9-36.3-0-13.3-0-0.5
224	LTNC17	WRC310-001	20	35.2564608	-83.1336517	Mill Creek	2.00E-04	0.9749	0	0.02445	0	0.00045	0-97.5-0-2.4-0-0
225	LTNC18	WRC311-001	20	35.167814	-83.1852347	Mill Creek	0.57015	0.14715	0	0.2801	0	0.0025	57-14.7-0-28-0-0.3
226	LTNC19	WRC318-001	20	35.2766748	-83.0144098	Sols Creek	0.21795	0.6814	0	0.09295	0	0.0076	21.8-68.1-0-9.3-0-0.8
227	LTNC2	NC02-001	42	35.48692	-83.18631	Soco Creek	0	0.912571429	0	0.087404762	0	0	0-91.3-0-8.7-0-0
229	LTNC21	WRC322-001	20	35.2096888	-83.1164218	Trout Creek	0.5609	0.01025	0	0.00835	0	0.42055	56.1-1-0-0.8-0-42.1
230	LTNC22	WRC119-001	20	35.2551992	-83.5906381	UT Otter Creek	0	0.41965	0	0.58035	0	0	0-42-0-58-0-0
231	LTNC23	WRC022-001	20	35.254525	-83.966819	(C) Sassafras Creek (incl. trib.)	0	1	0	0	0	0	0-100-0-0-0-0
232	LTNC24	WRC120-001	20	35.023508	-83.487356	Yellow Patch Branch	0.0618	0.11405	0	0.8221	0	0.00215	6.2-11.4-0-82.2-0-0.2
233	LTNC25	WRC023-001	20	35.2455342	-83.8856125	Bear Creek	0	1	0	0	0	0	0-100-0-0-0-0
234	LTNC26	WRC025-001	20	35.3259869	-83.9640204	Wright Creek	0	0.9952	0	0.00475	0	0	0-99.5-0-0.5-0-0
235	LTNC27	NC04-001	40	35.5288	-83.1922	Madcap Branch	0	1	0	0	0	0	0-100-0-0-0-0
236	LTNC28	NC05-001	39	35.4902	-83.2151	Jenkin's Creek	0	0.999230769	0.000589744	0.000179487	0	0	0-99.9-0.1-0-0-0
237	LTNC29	NC06-001	24	35.4995	-83.1746	Rough Branch	0.119166667	0.5365	8.33E-05	0.343666667	0	0.000375	11.9-53.7-0-34.4-0-0
238	LTNC3	NC03-001	40	35.52025	-83.22418	Big Witch Creek	0.0057	0.9162	0.008375	0.0697	0	2.50E-05	0.6-91.6-0.8-7-0-0
240	LTNC31	WRC376-001	40	35.26218	-84.04492	Tellico River	0	1	0	0	0	0	0-100-0-0-0-0
241	LTNC32	WRC377-001	34	35.25168	-84.0299	Round Mountain Branch	0	0.997823529	0	0.002147059	0	0	0-99.8-0-0.2-0-0
242	LTNC33	WRC378-001	31	35.27757	-83.99892	Snowbird Creek	0	0.999967742	0	3.23E-05	0	0	0-100-0-0-0-0
245	LTNC36	WRC384-001	28	35.384962	-83.079766	Dark Ridge Creek	0.006964286	0.979535714	0	0.013464286	0	0	0.7-98-0-1.3-0-0
246	LTNC37	WRC109-001	19	35.39795	-83.993239	Slickrock Creek	0.000210526	0.999789474	0	0	0	0	0-100-0-0-0-0
247	LTNC38	WRC100-001	20	35.051127	-83.4433848	Henson Creek	0	0.93305	0	0.06685	0	1.00E-04	0-93.3-0-6.7-0-0
248	LTNC39	WRC103-001	20	35.3365644	-83.4061966	Little Laurel Creek (trib. of Alarka Cr.)	0	1	0	0	0	0	0-100-0-0-0-0
250	LTNC40	WRC105-001	20	35.0812545	-83.2460064	Long Branch	0.45685	0.17915	0	0.33995	0	0.0239	45.7-17.9-0-34-0-2.4
251	LTNC41	WRC107-001	20	35.2703011	-84.0475248	Peckerwood Creek	0	1	0	0	0	0	0-100-0-0-0-0
252	LTNC42	WRC110-001	20	35.0512067	-83.2553861	Turtle Pond Creek	0.085	0.86325	0	0.0143	0	0.0375	8.5-86.3-0-1.4-0-3.8
253	LTNC43	WRC114-001	20	35.032742	-83.436394	UT to Coweeta Creek (near Reynolds Gap)	0	1	0	0	0	0	0-100-0-0-0-0
254	LTNC44	WRC115-001	20	35.2175734	-83.2342281	Wildcat Creek	0.04855	0.93405	0	0.0174	0	0	4.9-93.4-0-1.7-0-0
256	LTNC46	WRC118-001	20	35.249133	-83.669244	Pierce Creek ( also listed as Piercy Creek)	0	2.00E-04	0	0.9992	0	6.00E-04	0-0-0-99.9-0-0.1
257	LTNC47	WRC267-001	20	35.382	-83.12	(A) South Fork Sugarloaf Creek	0	1	0	0	0	0	0-100-0-0-0-0
258	LTNC48	WRC268-001	5	35.392	-83.133	(A) Sugarloaf Creek (below barrier)	0.2	0.8	0	0	0	0	20-80-0-0-0-0
259	LTNC49	WRC269-001	19	35.388	-83.126	(A) UT Sugarloaf Creek	0	1	0	0	0	0	0-100-0-0-0-0
270	LTNC58	WRC282-001	20	35.3280919	-83.0582684	(D) Chastine Creek (incl. tribs.)	0	1	0	0	0	0	0-100-0-0-0-0
271	LTNC59	WRC283-001	20	35.347	-83.054	(D) Craig Creek	0	1	0	0	0	0	0-100-0-0-0-0
272	LTNC6	WRC101-001	20	35.1570048	-83.2625388	Ledford Branch	0.65575	0.34225	0	0	0	0.00215	65.6-34.2-0-0-0-0.2
273	LTNC60	WRC284-001	20	35.3360411	-83.05636282	(D) Frady Creek	0	1	0	0	0	0	0-100-0-0-0-0
275	LTNC62	WRC299-001	20	35.4191386	-83.1907797	Fisher Creek	0	1	0	0	0	0	0-100-0-0-0-0
276	LTNC63	WRC304-002	19	35.333816	-83.3062694	Greens Creek	0.157894737	0.842105263	0	0	0	0	15.8-84.2-0-0-0-0
277	LTNC64	WRC305-001	20	35.2200232	-83.1506208	Hunter Jim Creek	0	0.89435	0	0.10565	0	0	0-89.4-0-10.6-0-0
279	LTNC66	WRC309-001	20	35.2171902	-83.1048686	Little Trout Creek	0	0.93685	0	0.06315	0	0	0-93.7-0-6.3-0-0
280	LTNC67	WRC312-001	20	35.2339737	-83.0196683	Neddie Creek	0	0.9727	0	0.0273	0	0	0-97.3-0-2.7-0-0
281	LTNC68	WRC319-001	20	35.2847512	-82.9434836	Tanassee Creek	0	1	0	0	0	0	0-100-0-0-0-0
282	LTNC69	WRC323-001	20	35.3482953	-83.1325927	Wayehutta Creek	0	0.37565	0	0.6243	0	5.00E-05	0-37.6-0-62.4-0-0
283	LTNC7	WRC106-001	20	35.0980559	-83.1887634	Norton Prong	0.59565	0.2304	0	0.1725	0	0.0013	59.6-23-0-17.3-0-0.1
284	LTNC70	WRC366-001	20	35.24075	-83.582694	Big Branch	0	0.5237	0	0.4763	0	0	0-52.4-0-47.6-0-0
285	LTNC71	WRC369-001	20	35.3657942	-83.0204091	Mull Creek	0	0.5333	0	0.4667	0	0	0-53.3-0-46.7-0-0
286	LTNC72	WRC024-001	20	35.328906	-84.016292	Whigg Branch	0.36945	0.53135	0	0.08685	0	0.01235	36.9-53.1-0-8.7-0-1.2
290	LTNC76	WRC116-001	20	35.039192	-83.574072	Buck Creek	0.00025	0.7154	0	0.23255	0	0.0517	0-71.5-0-23.3-0-5.2
291	LTNC77	WRC278-001	20	35.35	-83.088	(C) East Fork Moses	0	0.86	0	0.14	0	0	0-86-0-14-0-0
292	LTNC78	WRC279-001	20	35.3312291	-83.1007775	(C) Moses Creek	0	0.95015	0	0.04985	0	0	0-95-0-5-0-0
293	LTNC79	WRC280-001	20	35.338	-83.098	(C) Moses Creek	0	0.85195	0	0.14805	0	0	0-85.2-0-14.8-0-0
294	LTNC8	WRC111-001	20	35.3374603	-83.3784729	Upper Long Branch	0	1	0	0	0	0	0-100-0-0-0-0
296	LTNC81	WRC285-001	20	35.3300556	-83.0012443	(F) Bearwallow Creek (including tribs.)	0.04305	0.7573	0	0.13355	0	0.0661	4.3-75.7-0-13.4-0-6.6
297	LTNC82	WRC286-001	20	35.332	-82.999	(F) Birch Ridge Creek	0.0012	0.8879	0	0.11045	0	5.00E-04	0.1-88.8-0-11-0-0.1
298	LTNC83	WRC287-001	20	35.179	-83.076	(G) Cow Mountain Branch	0.10955	0.0761	0	0.8109	0	0.00325	11-7.6-0-81.1-0-0.3
299	LTNC84	WRC288-001	20	35.186	-83.078	(G) Mill Creek	0.38325	0.201	0	0.3947	0	0.02095	38.3-20.1-0-39.5-0-2.1
300	LTNC85	WRC289-001	20	35.176	-83.061	(G) Packs Creek	0.4928	0.001	0	0.506	0	1.00E-04	49.3-0.1-0-50.6-0-0
301	LTNC86	WRC290-001	20	35.183	-83.082	(G) Shelton Creek	0.56655	0.0077	0	0.3605	0	0.06525	56.7-0.8-0-36.1-0-6.5
302	LTNC87	WRC291-001	20	35.2644016	-83.0185048	(H) Sols Creek	0	0.90175	5.00E-05	0.0977	0	5.00E-04	0-90.2-0-9.8-0-0.1
303	LTNC88	WRC292-001	20	35.3523882	-83.0155009	Beechflat Creek	0.8905	0	0	0	0	0.10945	89.1-0-0-0-0-10.9
305	LTNC9	WRC112-001	20	35.1334328	-83.2059302	UT Buck Creek	0	1	0	0	0	0	0-100-0-0-0-0
306	LTNC90	WRC297-001	20	35.2186559	-83.2097509	Dodgen Creek	0.7132	0.28525	0	2.00E-04	0	0.0013	71.3-28.5-0-0-0-0.1
307	LTNC91	WRC300-001	20	35.2204377	-83.0327662	Flat Creek	0.00435	0.0452	0.0013	0.9492	0	0	0.4-4.5-0.1-94.9-0-0
308	LTNC92	WRC301-001	20	35.2883362	-82.9733704	Gage Creek	0.8321	0.08375	0	0.026	0	0.058	83.2-8.4-0-2.6-0-5.8
309	LTNC93	WRC313-001	20	35.3235915	-82.9913537	Piney Mountain Creek	0.18815	0.59035	0.00825	0.2104	0	0.0028	18.8-59-0.8-21-0-0.3
310	LTNC94	WRC314-001	20	35.2568349	-82.9362342	Pinhook Creek	0.0638	0.66585	0	0.2703	0	0.00015	6.4-66.6-0-27-0-0
311	LTNC95	WRC315-001	20	35.2488885	-83.2674832	Shell Branch	0	1	0	0	0	0	0-100-0-0-0-0
313	LTNC97	WRC317-001	20	35.2007229	-83.0039466	Slickens Creek	0.63145	0.0916	0	0.00015	0	0.27675	63.1-9.2-0-0-0-27.7
314	LTNC98	WRC320-001	19	35.2802563	-83.2630471	Tatham Creek	0.002368421	0.997526316	0	0.000105263	0	0	0.2-99.8-0-0-0-0
315	LTNC99	WRC324-004	15	35.2665208	-82.9695989	Wolf Creek	0.000266667	0.590666667	0	0.4052	0	0.003866667	0-59.1-0-40.5-0-0.4
316	MPPS1	LR_2013_211	29	35.598205	-83.501998	Meigs Post Prong Site 1	0	0	0	1	0	0	0-0-0-100-0-0
317	MPPS2	LR_2013_240	31	35.594744	-83.49822	Meigs Post Prong Site 2	0	0	0	1	0	0	0-0-0-100-0-0
318	PFBNC1	NC01-001	42	35.46629	-83.04172	Hyatt Cove Creek	0	0.46852381	0.215738095	0.315642857	0	9.52E-05	0-46.9-21.6-31.6-0-0
319	PFBNC10	WRC246-001	20	35.4136987	-83.0132106	Old Bald Creek	0	0	0.9998	2.00E-04	0	0	0-0-100-0-0-0
320	PFBNC100	WRC217-001	20	35.721547	-82.254889	Right Prong South Toe River	0.368	0.45105	0.01265	0.1538	0	0.01435	36.8-45.1-1.3-15.4-0-1.4
321	PFBNC101	WRC219-001	19	35.76075	-82.192601	Roaring Fork	0.052894737	0.632894737	0.011789474	0.302421053	0	0.000105263	5.3-63.3-1.2-30.2-0-0
322	PFBNC102	WRC222-001	20	36.1015896	-82.0403139	Sandbank Creek	0.5488	0.45105	0	0	0	0.00015	54.9-45.1-0-0-0-0
324	PFBNC104	WRC225-001	20	36.136075	-82.221978	Spring Creek	0.3255	0.4682	0	0.2062	0	5.00E-05	32.6-46.8-0-20.6-0-0
325	PFBNC105	WRC226-001	20	36.0048744	-82.0796566	Stagger Weed Creek	0.59275	0.09875	0.00365	0.29835	0	0.00645	59.3-9.9-0.4-29.8-0-0.6
326	PFBNC106	WRC227-001	20	35.8172014	-82.1783762	UT Little White Oak Creek	0.1719	0.7745	0	0.05355	0	5.00E-05	17.2-77.5-0-5.4-0-0
327	PFBNC107	WRC235-001	20	35.511961	-83.0311825	Gaddis Branch	2.00E-04	0	0.9998	0	0	0	0-0-100-0-0-0
328	PFBNC108	WRC236-001	20	35.5658324	-83.08157727	Hemphill Branch	0.0308	0.0797	0.7772	0.11165	0	7.00E-04	3.1-8-77.7-11.2-0-0.1
329	PFBNC109	WRC242-001	20	35.439484	-82.9913905	Medford Branch	0.00845	0.93155	0	0.0585	0	0.0014	0.8-93.2-0-5.9-0-0.1
330	PFBNC11	WRC250-001	20	35.4082192	-83.9945695	Shiny Creek	0	0	0.99915	0.00085	0	0	0-0-99.9-0.1-0-0
331	PFBNC110	WRC245-001	20	35.4113281	-83.016928	Old Bald Creek	0	0	0.99995	5.00E-05	0	0	0-0-100-0-0-0
332	PFBNC111	WRC249-001	15	35.335311	-82.889639	Sam Branch	1	0	0	0	0	0	100-0-0-0-0-0
333	PFBNC112	WRC254-001	20	35.458564	-83.085531	Winchester Creek	0	0	1	0	0	0	0-0-100-0-0-0
334	PFBNC113	WRC026-001	20	36.016006	-82.684572	(A) East Prong Hickey Fork	0.1224	0.0226	0	0.8485	0	0.00655	12.2-2.3-0-84.9-0-0.7
335	PFBNC114	WRC027-001	20	35.4315423	-82.6826226	(B) Fletcher Creek	5.00E-05	6.00E-04	0	0.99935	0	0	0-0.1-0-99.9-0-0
336	PFBNC115	WRC028-001	20	35.4346241	-82.68400165	(B) Spencer Branch	0	0	0	1	0	0	0-0-0-100-0-0
340	PFBNC119	WRC326-001	20	36.1950526	-81.9551761	Fall Creek	1	0	0	0	0	0	100-0-0-0-0-0
342	PFBNC120	WRC327-001	19	36.1854005	-81.7095864	Harrison Branch	0.000157895	0.917157895	0	0.082631579	0	0	0-91.7-0-8.3-0-0
345	PFBNC123	WRC330-001	20	36.196714	-81.7076549	Laurel Fork	0.04185	0.5859	0	0.36785	0	0.00435	4.2-58.6-0-36.8-0-0.4
346	PFBNC125	WRC339-001	20	36.2149634	-81.8216606	Worley Creek	0.0631	0.1242	0	0.81255	0	0	6.3-12.4-0-81.3-0-0
347	PFBNC126	WRC036-001	19	35.1531241	-82.8544272	(K) Diamond Creek (above falls)	0.000157895	0.003315789	0	0.996473684	0	5.26E-05	0-0.3-0-99.6-0-0
348	PFBNC127	WRC037-001	19	35.148	-82.841	(K) Diamond Creek (below falls)	0.344210526	0.001263158	0	0.653473684	0	0.000947368	34.4-0.1-0-65.3-0-0.1
353	PFBNC131	WRC043-001	20	35.317274	-82.7989204	Big Bearpen Branch	0.0011	0	0	0.9989	0	0	0.1-0-0-99.9-0-0
354	PFBNC132	WRC044-001	20	35.1263498	-82.7254991	Bradley Creek	0.5433	3.00E-04	0	0.25755	0	0.19875	54.3-0-0-25.8-0-19.9
357	PFBNC135	WRC047-001	19	35.2452798	-82.8250315	Cathys Creek (above falls)	0.755105263	0.000105263	0	0.239894737	0	0.004789474	75.5-0-0-24-0-0.5
358	PFBNC136	WRC048-001	20	35.2279072	-82.8089636	Cedar Rock Creek	0.4654	0	0	0.53455	0	1.00E-04	46.5-0-0-53.5-0-0
360	PFBNC138	WRC054-001	20	35.1953627	-82.7006818	Hogsed Creek	0.00105	1.00E-04	0	0.9982	0	7.00E-04	0.1-0-0-99.8-0-0.1
361	PFBNC139	WRC055-001	20	35.2269765	-82.8036075	Kagle Branch	0.15	0	0	0.85	0	0	15-0-0-85-0-0
362	PFBNC14	WRC086-001	20	35.3011132	-82.7014008	North Prong Turkey Creek	0	0	0	1	0	0	0-0-0-100-0-0
363	PFBNC140	WRC056-001	19	35.2453111	-82.7890818	Kuykendall Creek	0.996947368	0	0	0	0	0.003052632	99.7-0-0-0-0-0.3
364	PFBNC141	WRC058-001	20	35.3211685	-82.8026481	Log Hollow Branch	1	0	0	0	0	0	100-0-0-0-0-0
365	PFBNC142	WRC059-001	20	35.3240283	-82.7897053	Looking Glass Creek	0.786	0.01965	0	0.1944	0	1.00E-04	78.6-2-0-19.4-0-0
366	PFBNC144	WRC067-001	20	35.3017378	-82.803234	Rockhouse Creek	1	0	0	0	0	0	100-0-0-0-0-0
367	PFBNC145	WRC068-001	20	35.5621703	-82.3555376	Rocky Fork	0.99965	5.00E-05	0	0	0	0.00025	100-0-0-0-0-0
370	PFBNC148	WRC071-001	20	35.3216175	-82.6885368	Sutton Creek	0.78945	0.0117	5.00E-05	0.1784	0	0.0203	78.9-1.2-0-17.8-0-2
371	PFBNC149	WRC072-001	20	35.2333527	-82.8211449	Tarkiln Branch	0.20965	0	0	0.77265	0	0.01765	21-0-0-77.3-0-1.8
374	PFBNC152	WRC077-001	20	35.3352984	-82.8026901	UT Looking Glass Creek (@ Bennet Cove)	0.50155	0.0049	0	0.49305	0	4.00E-04	50.2-0.5-0-49.3-0-0
377	PFBNC155	WRC080-001	20	35.3387483	-82.7923259	UT to Looking Glass Creek (@ Cherry Cove)	0.6788	0.00155	0	0.3195	0	1.00E-04	67.9-0.2-0-32-0-0
378	PFBNC156	WRC081-001	20	35.148281	-82.594131	Wildcat Branch	0.191	0.00055	0.02585	0.7216	0	0.0611	19.1-0.1-2.6-72.2-0-6.1
379	PFBNC157	WRC084-001	20	35.2791541	-82.88750234	Chestnut Creek	5.00E-05	0.0018	0	0.9981	0	5.00E-05	0-0.2-0-99.8-0-0
380	PFBNC158	D712-001	86	36.1187367	-81.785994	Boone Fork	0	1	0	0	0	0	0-100-0-0-0-0
381	PFBNC159	D904-001	48	35.65536	-82.41322	Left Fork Beetree Creek	0	0	0	1	0	0	0-0-0-100-0-0
382	PFBNC16	WRC088-001	20	35.720176	-82.8363434	UT Friezland Creek	0	0	0.978	0.022	0	0	0-0-97.8-2.2-0-0
383	PFBNC160	D905-001	40	35.66236	-82.29021	Flat Creek	0	0.001	0	0.998975	0	0	0-0.1-0-99.9-0-0
384	PFBNC161	D908-001	40	35.72633	-82.33578	North Fork Swannanoa River	0	0	0	1	0	0	0-0-0-100-0-0
386	PFBNC17	WRC089-001	20	35.1317496	-82.633079	Walker Branch	0.6013	5.00E-05	0	0.34725	0	0.05135	60.1-0-0-34.7-0-5.1
388	PFBNC19	WRC050-001	20	35.2919502	-82.815768	Cove Creek	0	0	0	1	0	0	0-0-0-100-0-0
389	PFBNC21	WRC238-001	20	35.520511	-83.1329804	Indian Creek	0	0	1	0	0	0	0-0-100-0-0-0
391	PFBNC23	WRC034-001	20	35.1911007	-82.8208899	(J) Sawmill Creek (above falls)	0	0	0	1	0	0	0-0-0-100-0-0
392	PFBNC24	WRC371-001	20	35.088828	-82.756712	South Prong Glady Fork	0.00805	0.042	0	0.9378	0	0.01215	0.8-4.2-0-93.8-0-1.2
393	PFBNC25	WRC372-001	20	35.089306	-82.741648	Jane Cantrell Creek	0	0	0	0.99995	0	0	0-0-0-100-0-0
394	PFBNC26	WRC373-001	20	35.108285	-82.701368	Hickory Flat Creek	1	0	0	0	0	0	100-0-0-0-0-0
396	PFBNC28	WRC382-001	20	35.120125	-82.75003	Laurel Branch (Murr Creek) Above Falls	0.10565	2.00E-04	0	0.8386	0	0.05565	10.6-0-0-83.9-0-5.6
398	PFBNC3	WRC064-001	20	35.3536568	-82.7777478	Pigeon Branch	0.9798	0.0012	0	0.019	0	0	98-0.1-0-1.9-0-0
400	PFBNC31	WRC042-001	20	35.462239	-82.689914	Beaverdam Creek	0	5.00E-05	0	0.99995	0	0	0-0-0-100-0-0
401	PFBNC32	WRC051-001	20	35.1232614	-82.7047303	East Fork French Broad River	0	0	0	1	0	0	0-0-0-100-0-0
403	PFBNC34	WRC057-001	19	35.361242	-82.683317	Laurel Creek	0	0	0	1	0	0	0-0-0-100-0-0
404	PFBNC35	WRC060-001	20	35.756372	-82.946969	Maple Springs Branch	0	0.02275	0.9011	0.07605	0	0	0-2.3-90.1-7.6-0-0
405	PFBNC36	WRC062-001	20	35.798753	-82.368792	North Fork Ivy Creek	0	0	0	1	0	0	0-0-0-100-0-0
407	PFBNC38	WRC065-001	20	35.6694559	-82.3930353	Right Fork Beetree Creek	0	0	0	1	0	0	0-0-0-100-0-0
408	PFBNC39	WRC066-001	20	35.815297	-82.938686	Roaring Fork	0.0013	0.00035	0.00925	0.98905	0	0	0.1-0-0.9-98.9-0-0
409	PFBNC4	WRC090-001	20	35.33193	-82.65082	Woody Branch	0	0	0	1	0	0	0-0-0-100-0-0
412	PFBNC42	WRC082-001	20	35.3314292	-82.6493749	Woody Branch	0	0	0	1	0	0	0-0-0-100-0-0
413	PFBNC43	WRC085-001	20	35.2584604	-82.7535622	Mine Branch	0	0	0	1	0	0	0-0-0-100-0-0
414	PFBNC44	WRC189-001	20	35.87624	-82.234827	Ayles Creek	0	0.73575	0.00015	0.26415	0	0	0-73.6-0-26.4-0-0
415	PFBNC45	WRC190-001	20	35.9652732	-82.4749537	Bald Mountain Creek	0	0.9999	0	1.00E-04	0	0	0-100-0-0-0-0
416	PFBNC46	WRC196-001	20	36.0968006	-82.1012793	Carvers Gap Creek	0	1	0	0	0	0	0-100-0-0-0-0
418	PFBNC48	WRC198-001	20	35.9602071	-82.0517815	Gouges Creek	0	1	0	0	0	0	0-100-0-0-0-0
419	PFBNC49	WRC200-001	20	36.083408	-82.115417	Holder Creek	0	0.9441	0	0.0559	0	0	0-94.4-0-5.6-0-0
420	PFBNC5	WRC230-001	20	35.4080126	-83.0011615	Cherry Cove Creek	0	0	0.9999	1.00E-04	0	0	0-0-100-0-0-0
421	PFBNC50	WRC201-001	20	36.082267	-82.063001	Jerry Creek	0	1	0	0	0	0	0-100-0-0-0-0
422	PFBNC51	WRC203-001	20	36.0956264	-82.0985289	Johns Camp Branch	0	1	0	0	0	0	0-100-0-0-0-0
423	PFBNC52	WRC204-001	20	35.9845092	-82.044634	Jones Creek	0	0.99985	0	0.00015	0	0	0-100-0-0-0-0
424	PFBNC53	WRC209-001	20	36.121701	-82.160219	Lyddies Creek	0	1	0	0	0	0	0-100-0-0-0-0
426	PFBNC55	WRC212-001	20	35.7970579	-82.2825554	Ogle Creek	0	1	0	0	0	0	0-100-0-0-0-0
427	PFBNC56	WRC214-001	20	35.7731193	-82.3226384	Raven Fork	0	1	0	0	0	0	0-100-0-0-0-0
428	PFBNC57	WRC218-001	20	36.116242	-82.050094	Roaring Creek	0	0.9989	0	0.0011	0	0	0-99.9-0-0.1-0-0
429	PFBNC58	WRC220-001	20	35.8482545	-82.2108422	Roaring Spout Branch (Above Falls)	0	1	0	0	0	0	0-100-0-0-0-0
431	PFBNC6	WRC231-001	20	35.4144916	-83.9934787	Deep Gap Creek	0	0	1	0	0	0	0-0-100-0-0-0
433	PFBNC61	WRC228-001	20	35.382768	-82.8093472	Bee Branch	0	0	1	0	0	0	0-0-100-0-0-0
435	PFBNC63	WRC232-001	19	35.4134934	-82.9919913	Deep Gap Creek	0	0	1	0	0	0	0-0-100-0-0-0
436	PFBNC64	WRC233-001	20	35.5284956	-83.1522215	Deep Gap Creek	0	5.00E-05	0.9999	5.00E-05	0	0	0-0-100-0-0-0
437	PFBNC65	WRC234-001	20	35.54362	-83.1043	Fie Creek	0.0601	0.0015	0.9082	0.0292	0	0.001	6-0.2-90.8-2.9-0-0.1
438	PFBNC66	WRC239-001	20	35.5044723	-83.0939977	Johnson Branch	0	5.00E-05	0.9985	0.00145	0	0	0-0-99.9-0.1-0-0
439	PFBNC67	WRC240-001	20	35.5194154	-83.158788	Long Branch	0	0	1	0	0	0	0-0-100-0-0-0
440	PFBNC68	WRC241-001	20	35.5350548	-83.1629576	Mashie Stomp Creek	0	0	1	0	0	0	0-0-100-0-0-0
441	PFBNC69	WRC244-001	20	35.435672	-82.934283	Nix Creek	0	0	1	0	0	0	0-0-100-0-0-0
442	PFBNC7	WRC237-001	20	35.400362	-82.7949057	Hungry Creek	0	0	1	0	0	0	0-0-100-0-0-0
443	PFBNC70	WRC247-001	20	35.4815135	-83.0456402	Plott Creek	0	0.00145	0.8903	0.10825	0	0	0-0.1-89-10.8-0-0
444	PFBNC71	WRC248-001	20	35.4263574	-83.0215477	Rocky Branch	0	5.00E-05	0.99975	2.00E-04	0	0	0-0-100-0-0-0
445	PFBNC72	WRC251-001	20	35.4159817	-83.0244455	Steestachee Creek	0	0	1	0	0	0	0-0-100-0-0-0
446	PFBNC73	WRC255-001	20	35.5108696	-83.1468679	Wolf Laurel Branch	0	0.00065	0.9984	0.00095	0	0	0-0.1-99.8-0.1-0-0
447	PFBNC74	WRC325-001	20	36.3214084	-81.7397625	Ellison Branch	0	0.99845	0	0.00155	0	0	0-99.8-0-0.2-0-0
448	PFBNC75	WRC328-001	20	36.1862318	-81.7095216	Harrison Branch	5.00E-05	0.85265	0	0.14735	0	0	0-85.3-0-14.7-0-0
449	PFBNC77	WRC333-001	20	36.3274908	-81.7776488	North Fork Cove Creek	0	1	0	0	0	0	0-100-0-0-0-0
450	PFBNC78	WRC334-001	20	36.1556859	-81.8987786	Ramp Branch	0	0.9997	0	3.00E-04	0	0	0-100-0-0-0-0
451	PFBNC79	WRC335-001	20	36.1253758	-81.8201683	Shanty Spring Branch	0	0.75	0.00155	0.24845	0	0	0-75-0.2-24.8-0-0
452	PFBNC80	WRC337-001	20	36.1505828	-81.9007725	UT to Elk River (upstream of Ramp Branch)	0.0513	0.81455	5.00E-05	0.13405	0	0	5.1-81.5-0-13.4-0-0
453	PFBNC81	WRC365-001	20	35.4886448	-83.1133433	East Fork Campbell Creek	0	1.00E-04	0.9453	0.0546	0	0	0-0-94.5-5.5-0-0
454	PFBNC82	WRC367-001	20	35.449162	-82.7433732	Stony Fork	0	0	0	1	0	0	0-0-0-100-0-0
455	PFBNC83	WRC368-001	20	35.3007729	-82.8198306	UT Cove Creek	0	0	0	1	0	0	0-0-0-100-0-0
457	PFBNC86	WRC192-001	20	35.740517	-82.21605	Big Lost Cove Creek	0	1	0	0	0	0	0-100-0-0-0-0
458	PFBNC87	WRC193-001	20	35.7732736	-82.2913318	Big Poplar Creek	0.0012	0.98945	0	0.0032	0	0.00605	0.1-98.9-0-0.3-0-0.6
460	PFBNC89	WRC195-001	20	36.095653	-82.187814	Broad Branch	0.06805	0.54855	0.0553	0.3211	0	0.00695	6.8-54.9-5.5-32.1-0-0.7
462	PFBNC90	WRC199-001	20	35.710219	-82.251292	Hemphill Creek	0.42985	0.3121	0	0.22565	0	0.0326	43-31.2-0-22.6-0-3.3
464	PFBNC92	WRC205-001	20	36.073842	-82.096161	Little Rock Creek	0.0389	0.69075	0.0049	0.26465	0	9.00E-04	3.9-69.1-0.5-26.5-0-0.1
465	PFBNC93	WRC206-001	20	35.8202383	-82.1830178	Little Whiteoak Creek	0.4666	0.5247	0	0.0079	0	0.00065	46.7-52.5-0-0.8-0-0.1
466	PFBNC94	WRC207-001	20	35.8209539	-82.183294	Little Whiteoak Creek	0.29135	0.59845	0	0.1102	0	0	29.1-59.8-0-11-0-0
467	PFBNC95	WRC208-001	20	35.734181	-82.237019	Lower Creek	0.8408	0.09285	0	0.0474	0	0.01885	84.1-9.3-0-4.7-0-1.9
468	PFBNC96	WRC210-001	20	35.7431237	-82.2121026	Neals Creek	0.8658	0.08255	0	0.04605	0	0.0056	86.6-8.3-0-4.6-0-0.6
469	PFBNC97	WRC213-001	19	35.9954945	-82.0266517	Pyatt Creek	0.063	0.801736842	0	0.033473684	0	0.101789474	6.3-80.2-0-3.3-0-10.2
470	PFBNC98	WRC215-001	20	36.077086	-82.087278	Reuban Creek	0	0.94365	0	0.05635	0	0	0-94.4-0-5.6-0-0
471	PFBNC99	WRC216-001	20	36.0899691	-82.2272378	Right Fork Beans Creek	0.01695	0.9067	0.0032	0.0722	0	9.00E-04	1.7-90.7-0.3-7.2-0-0.1
472	SCS1	LR_2013_331	30	35.599257	-83.49679	Sweet Creek Site 1	0	0	0	1	0	0	0-0-0-100-0-0
473	SiCS2	FC_2014_188	50	35.580724	-83.567498	Silers Creek Site 2	0	0	0	1	0	0	0-0-0-100-0-0
474	STB	LR_2013_361	30	35.589128	-83.514027	Spud Town Branch	0	0	0	1	0	0	0-0-0-100-0-0
475	TN01	TN01-001	34	36.19179	-82.10446	George Creek	0	2.94E-05	0	0.999970588	0	0	0-0-0-100-0-0
476	TN02	TN02-001	34	36.17373	-82.21049	Clarke Creek	0	0.536294118	0.069264706	0.394441176	0	0	0-53.6-6.9-39.4-0-0
477	TN03	TN03-001	32	36.12929	-82.09356	Toms Creek	0	0.000375	0	0.999625	0	0	0-0-0-100-0-0
478	TN04	TN04-001	50	36.1452	-82.04849	Left Prong Hampton Creek (lower)	0	0.00232	8.00E-05	0.9976	0	0	0-0.2-0-99.8-0-0
479	TN05	TN05-001	50	36.13995	-82.04641	Left Prong Hampton Creek (upper)	0	0.0683	0	0.9317	0	0	0-6.8-0-93.2-0-0
480	TN09	TN09-001	15	35.80358	-83.02765	Deep Gap Creek	0	0	0	0.999866667	0	0.000133333	0-0-0-100-0-0
481	TN10	TN10-001	30	36.1481741	-82.1020676	Five Poplar Branch	0	0	0	1	0	0	0-0-0-100-0-0
482	TN11	TN11-001	36	35.27136	-84.13839	Bald River	0.026138889	0.972333333	0	0.001555556	0	0	2.6-97.2-0-0.2-0-0
483	TN12	TN12-001	36	35.27077	-84.13883	Brookshire Creek	0.016388889	0.423277778	0.0525	0.506944444	0	0.000722222	1.6-42.3-5.3-50.7-0-0.1
489	TN07	TN07-001	21	36.4715	-81.97623	Lindy Camp Branch	0	0	0	1	0	0	0-0-0-100-0-0
491	TN16	TN16-001	22	36.46861	-81.97776	Big Spur Branch	0	0	9.09E-05	0.999909091	0	0	0-0-0-100-0-0
492	TN17	TN17-001	22	36.48027	-81.97548	Bakers Ridge Creek	0	0	0	1	0	0	0-0-0-100-0-0
493	TN20	TN20-001	20	36.60794	-81.6842	Whetstone Branch	0	0.9997	0	3.00E-04	0	0	0-100-0-0-0-0
494	TN08	TN08-001	21	36.61068	-81.65772	Bearpen Branch	0	0.687761905	0.000952381	0.311238095	0	0	0-68.8-0.1-31.1-0-0
495	TN108	TN108-001	30	35.798245	-82.998145	Middle Prong Gulf Ck.	2.00E-04	0.0012	0	0.989866667	0	0.0086	0-0.1-0-99-0-0.9
496	TN109	TN109-001	30	35.790545	-83.00505	Brown Gap Creek	0	0	0	0.999933333	0	3.33E-05	0-0-0-100-0-0
497	TN110	TN110-001	30	35.87983	-82.95747	Dry Fork	0	0.0129	0	0.987033333	0	6.67E-05	0-1.3-0-98.7-0-0
498	TN111	TN111-001	30	35.86268	-82.92706	Wolf Creek	0	0.000566667	0.962	0.028866667	0	0.008566667	0-0.1-96.2-2.9-0-0.9
499	TN112	TN112-001	30	35.95184	-82.827325	Sawmill Branch	0	0	0	1	0	0	0-0-0-100-0-0
500	TN122	TN122-001	30	36.560025	-81.709925	Gentry Creek	0	0.135833333	0.0111	0.853066667	0	0	0-13.6-1.1-85.3-0-0
501	TN021	TN021-001	30	35.356325	-84.06547	Falls Branch	1	0	0	0	0	0	100-0-0-0-0-0
502	TN025	TN025-001	20	35.33309	-84.05855	Sugar Cove Branch	0.5783	5.00E-05	0	0.01765	0	0.40395	57.8-0-0-1.8-0-40.4
503	TN065	TN065-001	30	36.069215	-82.596455	Ft. Davie Creek	0.7374	0.0728	0	0.080166667	0	0.109533333	73.7-7.3-0-8-0-11
504	TN084	TN084-001	30	36.063575	-82.59212	Rocky Fork	0.2855	0.4384	0	0.181533333	0	0.0946	28.6-43.8-0-18.2-0-9.5
505	BarboursCreek	VA02-001	20	37.595815	-80.087905	Barbours Creek	0.00245	0	0	0	0	0.99745	0.2-0-0-0-0-99.7
506	EwinsRun	VA03-001	20	37.539766	-80.293413	Ewins Run	0.00315	5.00E-05	0	0	0	0.9968	0.3-0-0-0-0-99.7
507	PicklesBranch	VA04-001	20	37.381798	-80.191154	Pickles Branch	0.00055	0	0	0	0.0377	0.96175	0.1-0-0-0-3.8-96.2
508	PaulsCreek	VA15-001	19	36.644512	-80.695658	Pauls Creek	0	0.972578947	0	0.027421053	0	0	0-97.3-0-2.7-0-0
509	PDER1	WRC344-001	20	36.1995485	-81.5754174	Elk Creek	0.00535	0.67315	0	0.3211	0	3.00E-04	0.5-67.3-0-32.1-0-0
510	PDER10	WRC346-001	18	36.436478	-81.074403	Horse Cove Branch	0	1	0	0	0	0	0-100-0-0-0-0
511	PDER11	WRC347-001	20	36.1049213	-81.542613	Joes Fork	2.00E-04	0.9263	0.05005	0.0235	0	5.00E-05	0-92.6-5-2.4-0-0
512	PDER12	WRC348-001	20	36.1775762	-81.5366649	Laurel Creek	0.00145	0.7176	0.00765	0.2724	0	7.00E-04	0.1-71.8-0.8-27.2-0-0.1
513	PDER13	WRC349-001	20	36.2654934	-81.4159139	Little Fork	0	0.9936	0	0.00635	0	0	0-99.4-0-0.6-0-0
514	PDER14	WRC350-001	10	36.449842	-80.943961	Long Creek	0	0.9484	8.00E-04	0.0508	0	0	0-94.8-0.1-5.1-0-0
515	PDER15	WRC351-001	19	36.264472	-81.398458	North Prong Lewis Fork	0.000105263	0.866052632	0	0.132842105	0	0.000947368	0-86.6-0-13.3-0-0.1
516	PDER16	WRC352-001	20	36.0942326	-81.6082065	Ooten Creek	0	0.9972	0	0.0028	0	0	0-99.7-0-0.3-0-0
518	PDER18	WRC354-001	20	36.1298035	-81.5893463	Rockhouse Creek	0	0.98085	2.00E-04	0.0189	0	5.00E-05	0-98.1-0-1.9-0-0
519	PDER19	WRC355-001	20	36.1674302	-81.5537206	South Fork Laurel Creek	0	0.99965	0	0.00035	0	0	0-100-0-0-0-0
520	PDER2	WRC358-001	20	36.3966103	-81.1151767	UT Harris Creek	0	0.9996	0	4.00E-04	0	0	0-100-0-0-0-0
524	PDER23	WRC357-001	20	36.448497	-80.961789	Stewart Fork	0.00055	0.8857	0	0.10975	0	0.00395	0.1-88.6-0-11-0-0.4
525	PDER24	WRC361-001	20	36.1151725	-81.6361518	UT Yadkin River (@ Caldwell/Watauga Co. line @ SR 1500)	0	0.90785	0	0.092	0	0.00015	0-90.8-0-9.2-0-0
526	PDER25	D704-001	26	36.1246884	-81.6368065	Martin Branch	0	0.979	0	0.021	0	0	0-97.9-0-2.1-0-0
527	PDER26	D705-001	25	36.1181424	-81.6302791	Yadkin River	0	0.91624	0	0.08364	0	8.00E-05	0-91.6-0-8.4-0-0
529	PDER3	WRC360-001	20	36.4397214	-80.9656906	UT Mitchell River (@ Surry/Alleghany Co. line)	0	0.9504	0.00115	0.04845	0	0	0-95-0.1-4.8-0-0
530	PDER4	WRC364-001	20	36.4198925	-81.1152104	UT Garden Creek	0	0.00065	0	0.99935	0	0	0-0.1-0-99.9-0-0
531	PDER5	WRC340-001	20	36.1235508	-81.5949909	(B) Spanish Oak Branch	0	0.7828	0	0.2172	0	0	0-78.3-0-21.7-0-0
532	PDER6	WRC341-001	20	36.431669	-80.952903	Bear Creek (UT Mitchell R. on Devotion Estate)	0	0.92375	0	0.0758	0	4.00E-04	0-92.4-0-7.6-0-0
534	PDER8	WRC343-001	20	36.1501125	-81.5394676	Dugger Creek	0	1	0	0	0	0	0-100-0-0-0-0
535	PDER9	WRC345-001	20	36.3989175	-81.1229172	Harris Creek	0	1.00E-04	0	0.9999	0	0	0-0-0-100-0-0
536	SFStewartsCreek	VA16-001	24	36.592978	-80.79188	SF Stewarts Creek	0	1	0	0	0	0	0-100-0-0-0-0
537	FridleyGap2010	AW1-001	30	38.497356	-78.717291	Mountain Run	1.00E-04	0	0	1.00E-04	0	0.9998	0-0-0-0-0-100
538	DryRun2010	AW1-031	30	38.558933	-79.092305	Dry Run, N.F.	4.00E-05	0	0	0	0	0.99996	0-0-0-0-0-100
539	SkidmoreFork2010	AW1-061	30	38.366106	-79.207234	Skidmore fork North River, N.F.	0.012827586	0	0	3.45E-05	0	0.987172414	1.3-0-0-0-0-98.7
540	ElkCreek2012	AW1-091	30	37.56566	-79.48229	East Fork Elk Creek	0	0.008083333	0	0	0	0.991916667	0-0.8-0-0-0-99.2
541	LittleStonyCreek2013	AW2-025	30	38.94517	-78.63751	Little Stony Creek	0	0.9026	0	0.0974	0	0	0-90.3-0-9.7-0-0
542	LittleWilsonCreek2012	AW2-055	21	37.98309	-79.75844	Little Wilson Creek	0	0	0	0	0	0.9999375	0-0-0-0-0-100
543	NorthForkTyeRiver2012	AW2-085	30	37.87248	-79.05521	North Fork Tye River	0.0033	0.010566667	0	0.000166667	0	0.985933333	0.3-1.1-0-0-0-98.6
544	NobusinessCreek2013	AW3-019	30	37.24217	-80.90196	No Business Creek	0.000466667	0.836666667	0	0.161666667	0	0.001166667	0-83.7-0-16.2-0-0.1
545	CarrickCreek	AW4-001	25	35.033222	-82.702944	Carrick Creek	0.466347826	0.084608696	0	0.433956522	0	0.015043478	46.6-8.5-0-43.4-0-1.5
546	EmoryCreek	AW4-031	28	35.033139	-82.761028	Emory Creek	0.04876	0.0732	0	0.87552	0	0.00248	4.9-7.3-0-87.6-0-0.2
547	FallsCreek	AW4-061	30	35.143528	-82.538944	Falls Creek	0.029833333	0	0	0.968566667	0	0.001633333	3-0-0-96.9-0-0.2
548	MathewsCreek	AW4-091	21	35.101444	-82.666	Matthews Creek	0.871285714	4.76E-05	0	0.001142857	0	0.127380952	87.1-0-0-0.1-0-12.7
549	D707	D707-001	20	36.293816	-81.602125	UT South Fork New River	0	0.9999	0	1.00E-04	0	0	0-100-0-0-0-0
550	D708	D708-001	54	36.27005	-81.45564	UT West Fork Pine Swamp Creek	1.85E-05	0.797388889	0	0.198537037	0	0.004018519	0-79.7-0-19.9-0-0.4
551	D709	D709-001	54	36.26992	-81.45647	West Fork Pine Swamp Creek	0	0.838740741	5.56E-05	0.148555556	0	0.012648148	0-83.9-0-14.9-0-1.3
553	D711	D711-001	48	36.289919	-81.43763	East Fork Pine Swamp Creek	0	0.995041667	0	0.004791667	0	0.000104167	0-99.5-0-0.5-0-0
554	POAR1	POAR1-01	50	39.6659	-77.5459	Edgemont Reservoir	0.00014	2.00E-05	0	6.00E-05	0	0.9998	0-0-0-0-0-100
555	POCA1	POCA1-001	23	39.1218	-78.5043	Hawk Run	8.70E-05	0.001391304	0	0	0	0.998434783	0-0.1-0-0-0-99.8
556	PONB1	PONB1-01	49	39.56505	-79.1526	Big Run	0.001285714	2.04E-05	0	0.000122449	0	0.998571429	0.1-0-0-0-0-99.9
557	PONB10	MD35-001	50	39.565446	-79.107979	Mainstem Savage River	8.00E-05	0.0036	0	2.00E-05	0	0.9963	0-0.4-0-0-0-99.6
558	PONB11	MD36-001	50	39.586382	-79.095378	Poplar Lick	6.00E-05	2.00E-05	0	0	0	0.99992	0-0-0-0-0-100
559	PONB12	MD37-001	50	39.62059	-79.066713	Blue Lick	0.00206	0	0	0	0	0.99792	0.2-0-0-0-0-99.8
560	PONB2	PONB2-01	49	39.60631	-79.12489	Poplar Lick	4.08E-05	0.005714286	0	0.000326531	0	0.993918367	0-0.6-0-0-0-99.4
561	PONB3	PONB3-01	49	39.51775	-79.16868	Middle Fork Crabtree Creek	0.00155102	0.00122449	0	4.08E-05	0	0.997183673	0.2-0.1-0-0-0-99.7
562	PONB4	PONB4-01	50	39.37217	-79.25085	Lostland Run	4.00E-05	0.00348	0	0.00118	0	0.99532	0-0.3-0-0.1-0-99.5
563	PONB5	PONB5-01	48	39.26321	-79.38213	Hindleg Run	0	0	0	4.17E-05	0	0.999958333	0-0-0-0-0-100
564	PONB6	PONB6-01	50	39.52621	-79.04156	Mill Run	0	2.00E-05	0	0.00018	0	0.99982	0-0-0-0-0-100
565	PONB7	PONB7-001	30	39.27408	-79.31303	Difficult Creek	0.000266667	0	0	3.00E-04	0	0.999433333	0-0-0-0-0-99.9
566	PONB8	PONB8-001	29	39.6443	-78.9357	Sand Spring Run	0.168137931	0	0.001068966	3.45E-05	0	0.830758621	16.8-0-0.1-0-0-83.1
567	PONB9	MD34-001	50	39.594986	-79.051875	Little Savage River	4.00E-05	0	0	0.00044	0	0.99952	0-0-0-0-0-100
568	POSB1	POSB1-001	49	38.6474	-79.5013	Teter Camp Run	0.006040816	0.00044898	0	0.016326531	0	0.977122449	0.6-0-0-1.6-0-97.7
569	POSB2	POSB2-01	25	38.8696	-79.4718	Horse Camp Run	0.00272	0	0.00088	4.00E-04	0	0.99596	0.3-0-0.1-0-0-99.6
570	POSB3	POSB3-001	23	38.8793	-79.3423	Sawmill Run	0.02	4.35E-05	0	0.000173913	0	0.97973913	2-0-0-0-0-98
571	POSB4	POSB4-001	27	38.8789	-79.34	Powdermill Run	0.003777778	3.70E-05	0	0	0	0.996185185	0.4-0-0-0-0-99.6
572	POSB5	POSB5-001	20	38.9092	-79.3258	Zeke Run	0	0	0	0	0	1	0-0-0-0-0-100
573	POSB6	POSB6-001	30	39.2597	-78.7537	Mill Run	0	0	0	0	0	1	0-0-0-0-0-100
574	POSB7	POSB7-001	30	38.9359	-79.3071	High Ridge Run	0.000766667	0.000133333	0.0026	0.0957	0	0.900733333	0.1-0-0.3-9.6-0-90.1
575	POSB8	POSB8-001	30	38.9718	-79.2837	Samuel Run	3.33E-05	0	0	0.000866667	0	0.9991	0-0-0-0.1-0-99.9
577	POSH10	POSH10-001	100	38.2685	-78.7011	Big Run	0.00018	0	0	0	0	0.99982	0-0-0-0-0-100
578	POSH11	POSH11-001	50	38.3127	-78.6305	U. Hawksbill Creek	0.00032	0	0	0.00018	0.0214	0.978	0-0-0-0-2.1-97.8
579	POSH12	POSH12-01	48	38.3685	-78.5602	Lee Run	0	0	0	0	0	1	0-0-0-0-0-100
580	POSH13	POSH13-02	43	38.3326	-78.5982	Eaton Hollow	0.063488372	0	0	0	0	0.936511628	6.3-0-0-0-0-93.7
581	POSH14	POSH14-01	29	38.6329	-78.3432	Dry Run, N.F.	0.000275862	0.018482759	0	0.000103448	0	0.981103448	0-1.8-0-0-0-98.1
582	POSH15	POSH15-31	29	38.6329	-78.3432	Dry Run, N.F.	6.90E-05	0.017655172	0	0	0	0.982206897	0-1.8-0-0-0-98.2
583	POSH16	POSH16-01	50	38.4318	-78.5374	S. Br. Naked Creek -1	0.00084	0	0	0	0	0.99916	0.1-0-0-0-0-99.9
584	POSH17	POSH17-01	50	38.4209	-78.5202	S. Br. Naked Creek -2	0.00028	2.00E-05	0	0	0	0.9997	0-0-0-0-0-100
585	POSH18	POSH18-001	50	38.4886	-78.4988	W. Br. Naked Creek	6.00E-05	0	0	0	0	0.99994	0-0-0-0-0-100
586	POSH19	POSH19-001	50	38.4935	-78.4595	E. Br. Naked Creek	0	0	0	0	0	1	0-0-0-0-0-100
588	POSH20	POSH20-01	38	38.4633	-78.4955	Big Creek	5.26E-05	0	0	0	0	0.999947368	0-0-0-0-0-100
589	POSH21	POSH21-01	33	38.5021	-78.5127	Harris Cove	6.06E-05	0	0	0	0	0.999939394	0-0-0-0-0-100
590	POSH22	POSH22-01	25	38.5087	-78.5398	Fultz Run	0.00104	0	0	0	0	0.99896	0.1-0-0-0-0-99.9
591	POSH23	POSH23-01	49	38.5198	-78.4459	Lewis Spring Branch	0	0	0	0	0	1	0-0-0-0-0-100
592	POSH24	POSH24-001	50	38.5456	-78.4286	Little Hawksbill Creek	6.00E-04	0.00366	0	0	0	0.99574	0.1-0.4-0-0-0-99.6
593	POSH25	POSH25-01	50	38.5524	-78.4134	Big Fill Hollow	0.233	0.0816	0	6.00E-05	2.00E-05	0.6853	23.3-8.2-0-0-0-68.5
594	POSH26	POSH26-001	50	38.5621	-78.3903	East Hawksbill Creek	0	0.02792	0	0.00016	0.30278	0.66908	0-2.8-0-0-30.3-66.9
595	POSH27	POSH27-01	50	38.6057	-78.3806	S. Fork Dry Run	0	0	0	6.00E-05	0	0.99992	0-0-0-0-0-100
596	POSH28	POSH28-001	35	38.6519	-78.3551	Pass Run	0.002657143	5.71E-05	0	0	0	0.997257143	0.3-0-0-0-0-99.7
597	POSH29	POSH29-036	20	38.6519	-78.3551	Pass Run	0.0119	0	0	0	0	0.9881	1.2-0-0-0-0-98.8
598	POSH3	POSH3-001	50	38.1596	-78.7912	Meadow Run	0.00012	0	0	0	0	0.99986	0-0-0-0-0-100
599	POSH30	POSH30-001	50	38.7523	-78.3092	Jeremy's Run	0.01598	2.00E-05	0	0	0	0.984	1.6-0-0-0-0-98.4
600	POSH31	POSH31-01	50	38.7776	-78.3323	Heiskell Hollow	0.0122	0	0	8.00E-05	0	0.98768	1.2-0-0-0-0-98.8
601	POSH32	POSH32-01	50	38.7838	-78.3014	Overall Run	2.00E-04	1.00E-04	0	6.00E-05	0	0.99962	0-0-0-0-0-100
604	POSH35	POSH35-01	41	38.7726	-78.2678	Greasy Run, site 2	0.223439024	0	0	0.000146341	0	0.776439024	22.3-0-0-0-0-77.6
605	POSH36	POSH36-01	50	38.7752	-78.2472	Gooney Run	0.03774	4.00E-05	0	2.00E-04	0	0.96202	3.8-0-0-0-0-96.2
606	POSH37	POSH37-01	9	38.8084	-78.1923	Smith Creek	0.250666667	0	0	0.000111111	0	0.749111111	25.1-0-0-0-0-74.9
607	POSH38	POSH38-01	40	38.8278	-78.1881	Lands Run	0.029	2.50E-05	0	0.000475	0	0.970475	2.9-0-0-0-0-97
608	POSH39	POSH39-001	30	38.7985	-78.8679	Capon Run	0.0512	0	0	0	0	0.9488	5.1-0-0-0-0-94.9
609	POSH4	POSH4-001	49	38.2098	-78.7519	Paine Run	0	0	0	0	0	1	0-0-0-0-0-100
610	POSH40	SH66-001	25	38.13821	-78.80693	Big Mine Branch	0.00012	0	0	0	0	0.99988	0-0-0-0-0-100
611	POSH41	SH70-001	30	38.6279	-78.35774	Dry Run, N.F.	0	0.007633333	0	0	0	0.992366667	0-0.8-0-0-0-99.2
612	POSH42	SH71-001	30	38.56708	-78.39623	East Hawksbill Creek	0	6.67E-05	0	0.000266667	0.798066667	0.2016	0-0-0-0-79.8-20.2
613	POSH43	SH77-001	30	38.54181	-78.4257	Little Hawksbill Creek	3.33E-05	0.009866667	0	0.000333333	0	0.989733333	0-1-0-0-0-99
614	POSH44	SH87-001	30	38.6129	-78.3781	S. Fork Dry Run	0	0.0035	0	0	3.00E-04	0.9962	0-0.4-0-0-0-99.6
615	POSH45	SH88-001	25	38.36557	-78.57957	West Swift Run	0	0	0	0	0	1	0-0-0-0-0-100
616	POSH5	POSH5-001	25	38.2497	-78.7424	Madison Run	0	0.00016	0	0.03452	0	0.96536	0-0-0-3.5-0-96.5
618	POSH8	POSH8-001	49	38.3144	-78.6732	Onemile Run	0	0	0	0	0	1	0-0-0-0-0-100
619	POSH9	POSH9-001	50	38.321	-78.6567	Twomile Run	0	0	0	0	0	1	0-0-0-0-0-100
620	JAMR1	JAMR1-01	50	38.2417	-78.6889	Doyle's R.	0.07338	4.00E-05	0	2.00E-05	0	0.92656	7.3-0-0-0-0-92.7
621	JAMR2	JAMR2-001	49	38.2069	-78.7266	N. Fork Moorman R.	0.531163265	4.08E-05	0	0	0	0.468795918	53.1-0-0-0-0-46.9
622	JARR1	JARR1-001	25	38.3461	-78.5184	Swift Run	0.46104	0.00152	0	0.00056	0	0.53688	46.1-0.2-0-0.1-0-53.7
623	JARR2	JARR2-01	49	38.2794	-78.6402	Ivy Creek	0.03622449	0.002265306	0	0	0	0.961510204	3.6-0.2-0-0-0-96.2
624	JARR3	SH75-001	25	38.2788	-78.62369	Ivy Creek Tributary	4.00E-05	0	0	0	0	0.99996	0-0-0-0-0-100
625	RAPH1	RAPH1-01	50	38.7574	-78.2304	Waterfall Branch	0.30748	0	0	0	0	0.69252	30.7-0-0-0-0-69.3
626	RAPH10	RAPH10-001	50	38.602	-78.3429	Hughes R.	1.00E-04	0	0	0	0.99502	0.00488	0-0-0-0-99.5-0.5
627	RAPH11	RAPH11-051	73	38.602	-78.3429	Hughes R.	0	1.37E-05	0	0	0.999561644	0.000410959	0-0-0-0-100-0
628	RAPH12	RAPH12-01	23	38.5746	-78.3305	Brokenback Run	0.041434783	0	0	0	0.958391304	0.000173913	4.1-0-0-0-95.8-0
629	RAPH13	RAPH13-01	44	38.5373	-78.3052	Ragged Run	0	0	0	0	1	0	0-0-0-0-100-0
630	RAPH14	SH73-001	30	38.60539	-78.31641	Hannah Run	0	0	0	0	1	0	0-0-0-0-100-0
631	RAPH15	SH74-001	30	38.6039	-78.33224	Hughes Trib	0	0	0	0	1	0	0-0-0-0-100-0
632	RAPH16	SH80-001	30	38.6028	-78.34771	Nicholson Hollow	0	0	0	0	1	0	0-0-0-0-100-0
635	RAPH2	RAPH2-01	50	38.7478	-78.2628	Keyser Run	0.17436	4.00E-04	0	0.00516	0	0.82006	17.4-0-0-0.5-0-82
636	RAPH3	RAPH3-01	50	38.7132	-78.2785	Piney R.	0.0196	2.00E-05	0	0.0045	0	0.97588	2-0-0-0.5-0-97.6
637	RAPH4	RAPH4-01	49	38.7016	-78.2894	N. Fork Thornton	0.115061224	0	0	0.000306122	0	0.884653061	11.5-0-0-0-0-88.5
638	RAPH5	RAPH5-51	25	38.6597	-78.286	S. Fork Thornton	0.00076	0	0	0	0	0.99924	0.1-0-0-0-0-99.9
639	RAPH6	RAPH6-001	50	38.6352	-78.278	Hazel R.	0.66074	4.00E-05	0	0	0.04	0.29924	66.1-0-0-0-4-29.9
640	RAPH7	RAPH7-01	25	38.6013	-78.285	Broad Hollow Run	0.50096	0	0	0	0	0.49904	50.1-0-0-0-0-49.9
641	RAPH8	RAPH8-001	40	38.6074	-78.3162	Hannah Run	0	0	0	0	1	0	0-0-0-0-100-0
642	RAPH9	RAPH9-041	25	38.6074	-78.3162	Hannah Run	0	0	0	0	1	0	0-0-0-0-100-0
643	RAPJ1	RAPJ1-01	50	38.8264	-78.1595	Indian Run	0.04688	0	0	2.00E-05	0	0.9531	4.7-0-0-0-0-95.3
644	RAPJ2	RAPJ2-001	50	38.8066	-78.1555	Bolton Branch	0.00224	0.00072	0	0.00012	0	0.9969	0.2-0.1-0-0-0-99.7
645	RAPJ3	RAPJ3-01	50	38.7729	-78.1659	Jordan R.	0.03036	0	0	0	0	0.96964	3-0-0-0-0-97
647	RAPR10	RAPR10-051	50	38.4472	-78.3651	Rapidan R.	0.01462	0	0	0	0.98008	0.0053	1.5-0-0-0-98-0.5
648	RAPR11	RAPR11-01	49	38.4666	-78.4428	Conway	0	0	0	0	1	0	0-0-0-0-100-0
649	RAPR12	RAPR12-01	50	38.4376	-78.4685	Devil's Ditch	0	0	0	0	0.99998	2.00E-05	0-0-0-0-100-0
650	RAPR13	RAPR13-01	25	38.4148	-78.4701	Pocosin Hollow Run	0	0	0	0	1	0	0-0-0-0-100-0
651	RAPR14	RAPR14-01	25	38.3797	-78.5055	South R.	0	0	0	0	1	0	0-0-0-0-100-0
652	RAPR15	SH67-001	25	38.45095	-78.44411	Bush Mountain Stream	0	0	0	0	1	0	0-0-0-0-100-0
653	RAPR16	SH68-001	30	38.54372	-78.37149	Cedar Run	0	0	0	0	1	0	0-0-0-0-100-0
654	RAPR17	SH69-001	30	38.50457	-78.40163	Dark Hollow	0	0	0	0	1	0	0-0-0-0-100-0
655	RAPR18	SH72-001	25	38.3916	-78.47795	Entry Run	0	0	0	0	1	0	0-0-0-0-100-0
656	RAPR19	SH76-001	30	38.48337	-78.43376	Laurel Prong	0	0	0	0	1	0	0-0-0-0-100-0
657	RAPR2	RAPR2-01	24	38.5635	-78.3638	White Oak Canyon Run	0	0	0	0	1	0	0-0-0-0-100-0
658	RAPR20	SH78-001	30	38.50017	-78.43459	Mill Prong	0	0	0	0	1	0	0-0-0-0-100-0
659	RAPR21	SH79-001	30	38.5704	-78.35266	Negro Run	0	0	0	0	1	0	0-0-0-0-100-0
662	RAPR24	SH83-001	30	38.41675	-78.47255	Pocosin Hollow Run	0	0	0	0	1	0	0-0-0-0-100-0
663	RAPR25	SH86-001	30	38.5346	-78.41011	Rose River	0	0	0	0	1	0	0-0-0-0-100-0
664	RAPR26	SH89-001	30	38.57729	-78.37114	White Oak Canyon Run	0	0	0	0	1	0	0-0-0-0-100-0
665	RAPR3	RAPR3-01	25	38.5471	-78.3754	Cedar Run	0	0	0	0	1	0	0-0-0-0-100-0
666	RAPR4	RAPR4-001	50	38.533	-78.4093	Rose R.	0	0	0	0	1	0	0-0-0-0-100-0
667	RAPR5	RAPR5-051	50	38.533	-78.4093	Rose R.	0.0021	0	0	0	0.99116	0.00674	0.2-0-0-0-99.1-0.7
668	RAPR6	RAPR6-001	50	38.5227	-78.42	Hogcamp Branch	0.00066	0.00026	0	0	0.93956	0.0595	0.1-0-0-0-94-6
669	RAPR7	RAPR7-001	45	38.4644	-78.4115	Staunton R.	0	0	0	0	1	0	0-0-0-0-100-0
670	RAPR8	RAPR8-051	39	38.4644	-78.4115	Staunton R.	0	0	0	0	1	0	0-0-0-0-100-0
671	RAPR9	RAPR9-001	50	38.4472	-78.3651	Rapidan R.	0.01362	0	0	0	0.98636	2.00E-05	1.4-0-0-0-98.6-0
673	SANR10	WRC008-001	20	36.075153	-81.786286	Bucks Timber Creek	0	1	0	0	0	0	0-100-0-0-0-0
675	SANR12	WRC010-001	20	35.9847383	-81.856655	Harper Creek	0	0.9836	0	0.01505	0	0.0013	0-98.4-0-1.5-0-0.1
676	SANR13	WRC013-001	20	36.0941433	-81.6457927	Left Fork Mulberry Creek	0.0019	0.8222	0	0.0946	0	0.0811	0.2-82.2-0-9.5-0-8.1
677	SANR14	WRC014-001	20	36.0909312	-81.7941819	Little Wilson Creek	0	1	0	0	0	0	0-100-0-0-0-0
678	SANR15	WRC015-001	20	36.067003	-81.630581	Mulberry Creek	0	0.98315	0	0.0168	0	5.00E-05	0-98.3-0-1.7-0-0
680	SANR17	WRC017-001	20	35.9596683	-81.888163	Upper Creek	0.09715	0.88885	0	0.0131	0	0.00085	9.7-88.9-0-1.3-0-0.1
681	SANR18	WRC018-001	20	36.0896361	-81.7737879	UT Anthony Creek (@ Headwaters Club)	0	0.9694	0	0.0306	0	0	0-96.9-0-3.1-0-0
682	SANR19	WRC020-001	20	35.9413001	-81.863064	UT Steels Creek (@ USFS Rd. 496)	0.189	0.8016	0	0.0088	0	0.00055	18.9-80.2-0-0.9-0-0.1
683	SANR2	WRC011-001	20	35.596247	-81.706086	Henry Fork	1	0	0	0	0	0	100-0-0-0-0-0
684	SANR20	WRC021-001	20	36.0894111	-81.8022855	Wilson Creek	0	1	0	0	0	0	0-100-0-0-0-0
686	SANR22	WRC002-001	20	35.183939	-82.531411	Uncles Creek (above falls)	1	0	0	0	0	0	100-0-0-0-0-0
687	SANR23	WRC392-001	36	35.893897	-81.97595	UT Honeycutt Creek	0	1	0	0	0	0	0-100-0-0-0-0
690	SANR4	WRC019-001	20	35.9573661	-81.9253382	UT Linville River	0	1	0	0	0	0	0-100-0-0-0-0
691	SANR5	WRC006-001	20	35.793128	-82.141186	Bee Rock Creek	0	0.99995	0	0	0	5.00E-05	0-100-0-0-0-0
695	SANR9	WRC007-001	20	35.907003	-81.860933	Buck Creek	1	0	0	0	0	0	100-0-0-0-0-0
697	SAV_GA1	GA01-001	38	34.987823	-83.272426	Ammons Creek	0	1	0	0	0	0	0-100-0-0-0-0
698	SAV_GA10	GA10-001	30	34.953095	-83.539133	Flat Branch	0	1	0	0	0	0	0-100-0-0-0-0
699	SAV_GA12	GA12-001	30	34.911669	-83.313096	Tuckaluge Creek	3.33E-05	0.932833333	0	0.067133333	0	0	0-93.3-0-6.7-0-0
700	SAV_GA22	GA22-001	30	34.860172	-83.644773	Perry Cove	0.0982	0.7626	0	0.000566667	0	0.138633333	9.8-76.3-0-0.1-0-13.9
701	SAV_GA23	GA23-001	30	34.883037	-83.604608	Lindsey Branch	0	1	0	0	0	0	0-100-0-0-0-0
702	SAV_GA8	GA08-001	30	34.869109	-83.622943	North Moccasin Creek	0.027433333	0.960266667	0	0.000166667	0	0.0121	2.7-96-0-0-0-1.2
704	SAVR10	WRC265-001	20	35.0458446	-83.0576443	UT Whitewater River (@Heady Mtn. Gap)	0.23185	0.21215	0	0.55345	0	0.0025	23.2-21.2-0-55.3-0-0.3
705	SAVR11	WRC266-001	16	35.017875	-83.2746057	West Fork Overflow Creek	0.8686875	0.1208125	0	0.001	0	0.0095625	86.9-12.1-0-0.1-0-1
708	SAVR4	WRC257-001	20	35.0258694	-83.2390669	East Fork Overflow Creek (above and below Glenn Falls)	0.0607	0.92395	0	0.01535	0	5.00E-05	6.1-92.4-0-1.5-0-0
709	SAVR5	WRC258-001	20	35.0112651	-83.1217918	Glade Creek	0	0.9945	5.00E-05	0.0054	0	0	0-99.5-0-0.5-0-0
710	SAVR6	WRC259-001	16	35.16205	-82.928467	Indian Creek	0.9135	0.000125	0	0.08625	0	6.25E-05	91.4-0-0-8.6-0-0
712	SAVR8	WRC263-001	20	35.0799787	-82.9970572	UT Thompson River (@NC 281 above Reid Creek)	0.4579	0.2921	0	0.2492	0	7.00E-04	45.8-29.2-0-24.9-0-0.1
714	SC01	SC01-001	60	34.962301	-83.097877	King Creek	0	0.16485	0.017866667	0.817266667	0	0	0-16.5-1.8-81.7-0-0
715	SC02	SC02-001	60	34.942555	-83.09442	Crane Creek	0	0.469933333	0	0.530066667	0	0	0-47-0-53-0-0
717	IOWR1	IOWR1-001	53	43.4179	-91.9378	South Pine Creek	0.928641509	0.024264151	0	1.89E-05	0	0.047037736	92.9-2.4-0-0-0-4.7
718	ISRO1	ISRO1-001	28	47.9335	-89.1055	Washington Creek	0.453142857	0.000142857	0	0.001107143	0	0.545642857	45.3-0-0-0.1-0-54.6
719	ISRO2	ISRO2-001	29	47.9212	-89.0752	Grace Creek	0.656758621	0.001586207	0	0.001413793	0	0.340241379	65.7-0.2-0-0.1-0-34
721	ISRO4	ISRO4-001	56	48.1127	-88.5697	Tobin Harbor	0.565642857	0.028767857	0	0.072160714	0	0.333410714	56.6-2.9-0-7.2-0-33.3
722	LACR1	LACR1-001	50	44.0877	-90.8523	Soper Creek	0.16842	0.00156	0	2.00E-05	0	0.82996	16.8-0.2-0-0-0-83
723	NEFS1	NEFS1-001	50	46.6565	-53.2144	Freshwater R.	1	0	0	0	0	0	100-0-0-0-0-0
724	NEFS2	NEFS2-001	36	46.6374	-53.1604	Watern Cove	1	0	0	0	0	0	100-0-0-0-0-0
725	NYNS1	NY18-001	30	40.863817	-73.200704	Nissequoque Creek	0.9997	0	0	0	0	3.00E-04	100-0-0-0-0-0
726	QUEM1	QUEM1-001	50	51.4174	-72.9409	Pepeshquasati R.	0.11506	2.00E-05	0	0.00504	2.00E-05	0.87986	11.5-0-0-0.5-0-88
727	QUEM2	QUEM2-001	43	51.3628	-72.7588	Cheno R.	0.03	0	0	0.002465116	0	0.96755814	3-0-0-0.2-0-96.8
728	WISR1	WISR1-001	50	43.397	-89.6521	Parfrey's Glen Creek	0.99498	2.00E-05	0	0	0	0.005	99.5-0-0-0-0-0.5
729	WISR2	WISR2-001	49	43.4897	-90.3664	Melancthon Creek	0.263734694	0.019081633	0	0.001183673	0.011938776	0.703979592	26.4-1.9-0-0.1-1.2-70.4
730	WISR3	WISR3-001	50	43.2845	-90.3306	Ash Creek	0.92402	0.00264	4.00E-05	0.01006	0	0.06328	92.4-0.3-0-1-0-6.3
731	MACS1	MACS1-001	81	41.594	-70.5066	Quashnet R., Cape Cod	0.986123457	0	0	0	0	0.013876543	98.6-0-0-0-0-1.4
732	MACS2	MACS2-001	49	41.5842	-70.5022	Red Brook, Cape Cod	0.999755102	0	0	0	0	0.000244898	100-0-0-0-0-0
733	MACS3	MACS3-001	28	41.6337	-70.4518	Santuit R., Cape Cod	0.999357143	0	0	0	0	0.000642857	99.9-0-0-0-0-0.1
734	MACS4	MACS4-001	43	41.6245	-70.481	Mashpee R., Cape Cod	0.999209302	0	0	0	0	0.000790698	99.9-0-0-0-0-0.1
735	NYLC1	DS02-001	30	44.288799	-73.52619	Spruce Mill Brook	0.996033333	0	0	0	0	0.003966667	99.6-0-0-0-0-0.4
736	NYLC2	DS01-001	32	44.298636	-73.742629	Styles Brook	0.355125	0.000875	0	0.0008125	0	0.64321875	35.5-0.1-0-0.1-0-64.3
737	VTLC1	VTLC1-01	50	44.1647	-72.8934	Slide Brook	0.98766	0	0	0	0	0.01234	98.8-0-0-0-0-1.2
738	VTLC2	VTLC2-01	50	43.8135	-72.9649	Kettle Brook	0.99286	1.00E-04	0	0.00034	0	0.00666	99.3-0-0-0-0-0.7
739	VTLM	VTLM-01	50	44.7845	-71.995	Bald Mountain Brook	0.9875	0.00016	0	0.00156	0	0.01074	98.8-0-0-0.2-0-1.1
740	NYCS1	NYCS1-001	40	40.762	-73.1492	Connetquot R.	0.99995	0	0	0	0	5.00E-05	100-0-0-0-0-0
741	NYCS2	NY18-061	30	40.771759	-73.156219	Connetquot R.	0.902433333	0	0	0	0	0.097566667	90.2-0-0-0-0-9.8
742	NYSS1	NY18-031	30	40.772389	-72.993351	Swan River	0.7757	0	0	0	0	0.2243	77.6-0-0-0-0-22.4
747	HUDR2	HUDR2-01	23	41.2902	-73.9943	Timp Brook	0.927826087	0.000478261	0	0	0	0.071652174	92.8-0-0-0-0-7.2
749	PASR1	PASR1-01	31	41.1571	-74.1386	Torne Brook	0.737	0	0	0	0	0.263	73.7-0-0-0-0-26.3
764	ACAD1	ACAD1-001	56	44.2869	-68.3478	Marshall Brook	1	0	0	0	0	0	100-0-0-0-0-0
765	ACAD2	ACAD2-001	55	44.2691	-68.3514	Lurvey Brook	0.975090909	0.001345455	0	0.015345455	0	0.008218182	97.5-0.1-0-1.5-0-0.8
766	ACAD3	ACAD3-001	55	44.314	-68.2246	Hunters Brook	1	0	0	0	0	0	100-0-0-0-0-0
767	ACAD4	ACAD4-001	55	44.3099	-68.2445	Stanley Brook	1	0	0	0	0	0	100-0-0-0-0-0
768	ACAD5	ACAD5-001	50	44.3177	-68.2557	Jordan Stream	0.9993	0	0	0	0	7.00E-04	99.9-0-0-0-0-0.1
769	ACAD6	ACAD6-001	41	44.3164	-68.2874	Hadlock Brook	0.976756098	0	0	0	0	0.023219512	97.7-0-0-0-0-2.3
770	CONR4	CONR4-01	50	42.8204	-72.969	Lamb Brook	0.99988	0	0	0	0	0.00012	100-0-0-0-0-0
771	CONR5	CONR5-001	37	42.7453	-72.3089	Brickyard Brook	0.893162162	0	0	0	0	0.106837838	89.3-0-0-0-0-10.7
773	CONR7	CONR7-001	50	42.639722	-72.988889	Manning Brook	0.99998	0	0	0	0	2.00E-05	100-0-0-0-0-0
774	NYHL	NYHL-01	31	43.6004	-74.8187	Horn Lake	0.076354839	0	0	3.23E-05	0	0.923612903	7.6-0-0-0-0-92.4
775	NYLT	NYLT-01	42	44.0377	-74.6115	Little Tupper Lake	0.582309524	0	0	0	0	0.417690476	58.2-0-0-0-0-41.8
776	NYWP	NYWP-01	56	44.331	-74.6272	Windfall Pond	0.089660714	0	0	0	0	0.910321429	9-0-0-0-0-91
777	KENR1	KENR1-01	33	45.3877	-69.963	Cold Stream	0.999545455	0	0	0	0	0.000454545	100-0-0-0-0-0
779	KENR3	KENR3-001	41	44.9152	-71.0926	Dead Diamond River	0.949365854	0	0	0	0	0.050609756	94.9-0-0-0-0-5.1
780	KENR4	KENR4-001	27	44.9697	-71.1533	Little Diamond River	0.98362963	0	0	0	0	0.01637037	98.4-0-0-0-0-1.6
783	KENR7	KENR7-01	33	44.6721	-70.3593	Alder Brook	0.973060606	0	0	0	0	0.026939394	97.3-0-0-0-0-2.7
784	PENR1	PENR1-01	30	45.1431	-68.2845	Lord Brook	1	0	0	0	0	0	100-0-0-0-0-0
785	PENR2	PENR2-01	59	44.8541	-68.8232	Kenduskeag Stream	0.999898305	0	0	0	0	0.000101695	100-0-0-0-0-0
786	STGE1	STGE1-01	30	44.4392	-69.2209	Thompson Brook	0.999833333	0	0	0	0	0.000166667	100-0-0-0-0-0
788	MERR3	MERR3-001	20	42.7217	-71.5525	Flints Brook	0.94655	0	0	0	0	0.05345	94.7-0-0-0-0-5.3
789	MERR4	MERR4-001	20	42.7978	-71.5511	Witches Brook	1	0	0	0	0	0	100-0-0-0-0-0
790	MERR5	MERR5-001	20	42.8114	-71.9175	Meadow Brook	0.9998	0	0	0	0	2.00E-04	100-0-0-0-0-0
791	MERR6	MERR6-001	19	43.1464	-71.8806	Sand Brook	1	0	0	0	0	0	100-0-0-0-0-0
792	PISR1	PISR1-001	30	43.1339	-70.9697	Chelsey Brook	1	0	0	0	0	0	100-0-0-0-0-0
793	SACR1	SACR1-001	30	43.77	-71.2511	White Brook	0.999866667	0	0	0	0	0.000133333	100-0-0-0-0-0
794	CRLE1	CRLE1-01	26	41.5	-81.2804	Leech Stream	0.0215	0.058807692	0	0	0	0.919653846	2.2-5.9-0-0-0-92
795	CRLE2	CRLE2-01	50	41.563	-81.2187	Woodie Brook	0.0356	0.33666	0	0.00264	0	0.625	3.6-33.7-0-0.3-0-62.5
796	CRLE3	CRLE3-01	59	41.5526	-81.234	Spring Brook	0.057610169	0.081288136	0	1.69E-05	0	0.861016949	5.8-8.1-0-0-0-86.1
797	OHAR1	OHAR1-01	50	42.0363	-78.4609	Two Mile Creek	0.00076	0.10464	0	0.0085	0	0.88602	0.1-10.5-0-0.9-0-88.6
798	OHAR2	OHAR2-102	47	41.7532	-78.0554	Allegheny R.	0.183042553	0.187148936	0.000510638	0.001829787	0	0.627382979	18.3-18.7-0.1-0.2-0-62.7
799	OHAR3	OHAR3-101	62	41.2378	-79.3223	Clarion R.	0.136580645	0.304806452	0	0.041129032	0	0.517451613	13.7-30.5-0-4.1-0-51.7
800	PA42_Lower	PA42-048	43	41.576103	-77.016626	Salt Spring Run (lower)	0.000860465	0.012534884	0	0.00944186	0	0.977162791	0.1-1.3-0-0.9-0-97.7
801	PA42_Upper	PA42-091	33	41.578088	-77.017383	Salt Spring Run (upper)	0.001848485	0	0	0	0	0.998151515	0.2-0-0-0-0-99.8
802	Ramsey	UOG-001	50	41.28714	-77.32458	Ramsey Run	0.00012	0.00202	0	0.00018	0	0.99766	0-0.2-0-0-0-99.8
803	Boone	UOG-051	50	41.35392	-77.36207	Boone Run	0.01112	0	0	0.00016	0	0.98872	1.1-0-0-0-0-98.9
804	Dam	UOG-251	50	41.32943	-77.34448	Dam Run	0	0	0	0	0	1	0-0-0-0-0-100
805	Cedar	UOG-101	50	41.61398	-77.50751	Cedar Run	0.00166	0	0	0	0	0.99834	0.2-0-0-0-0-99.8
806	Sebring	UOG-151	29	41.44963	-77.42755	Sebring Branch Mill Run	0	0.000310345	0	0.000689655	0	0.998965517	0-0-0-0.1-0-99.9
807	Francis	UOG-201	50	41.5527	-77.61581	Francis Branch Slate Run	6.00E-05	0.00014	0	2.00E-05	0	0.99978	0-0-0-0-0-100
808	CONR1	CONR1-01	36	44.4434	-71.3048	Unnamed	0.974666667	0	0	2.78E-05	0	0.025305556	97.5-0-0-0-0-2.5
809	CONR2	CONR2-01	40	44.4743	-71.3453	Brandy Brook	0.99755	0	0	0	0	0.00245	99.8-0-0-0-0-0.2
813	HUDR1	HUDR1-01	50	42.7814	-73.1452	Broad Brook	0.97354	0	0	0	0	0.02646	97.4-0-0-0-0-2.6
814	MD31	MD31-001	50	39.6886	-76.7787	Silver Run	0.86744	0.04248	0	0	0	0.09012	86.7-4.2-0-0-0-9
815	MD32	MD32-001	50	39.8248	-76.778	Walker Run	0.90596	0.00018	0	0	0	0.09384	90.6-0-0-0-0-9.4
817	SUSR1	SUSR1-01	50	40.8982	-78.0105	Smays Run	0.09742	0.00108	0	0.00138	0	0.90004	9.7-0.1-0-0.1-0-90
818	SUSR2	SUSR2-01	50	40.9334	-78.0128	Benner Run	0.02126	0.00082	0	1.00E-04	0	0.97778	2.1-0.1-0-0-0-97.8
